header: 
  seq: 601
  stamp: 
    secs: 25
    nsecs: 452000000
  frame_id: "map"
child_frame_id: "base_link"
pose: 
  pose: 
    position: 
      x: -0.000513612292707
      y: -0.0157812107354
      z: -0.0621890053153
    orientation: 
      x: -0.00160467276842
      y: 0.00104438672303
      z: -0.000633888601604
      w: -0.999997959837
  covariance: [0.0, 0.0, 0.0, 0.0, 0.0, 0.0, 0.0, 0.0, 0.0, 0.0, 0.0, 0.0, 0.0, 0.0, 0.0, 0.0, 0.0, 0.0, 0.0, 0.0, 0.0, 0.0, 0.0, 0.0, 0.0, 0.0, 0.0, 0.0, 0.0, 0.0, 0.0, 0.0, 0.0, 0.0, 0.0, 0.0]
twist: 
  twist: 
    linear: 
      x: -0.0212169003923
      y: -0.00865466367771
      z: -0.0455379106202
    angular: 
      x: 0.00279877125286
      y: -0.00012484533363
      z: -0.000577508646529
  covariance: [0.0, 0.0, 0.0, 0.0, 0.0, 0.0, 0.0, 0.0, 0.0, 0.0, 0.0, 0.0, 0.0, 0.0, 0.0, 0.0, 0.0, 0.0, 0.0, 0.0, 0.0, 0.0, 0.0, 0.0, 0.0, 0.0, 0.0, 0.0, 0.0, 0.0, 0.0, 0.0, 0.0, 0.0, 0.0, 0.0]
---
header: 
  seq: 602
  stamp: 
    secs: 25
    nsecs: 484000000
  frame_id: "map"
child_frame_id: "base_link"
pose: 
  pose: 
    position: 
      x: -0.000770680373535
      y: -0.0160534325987
      z: -0.0630616769195
    orientation: 
      x: -0.00158697687489
      y: 0.00103146869338
      z: -0.000625459231902
      w: -0.999998044131
  covariance: [0.0, 0.0, 0.0, 0.0, 0.0, 0.0, 0.0, 0.0, 0.0, 0.0, 0.0, 0.0, 0.0, 0.0, 0.0, 0.0, 0.0, 0.0, 0.0, 0.0, 0.0, 0.0, 0.0, 0.0, 0.0, 0.0, 0.0, 0.0, 0.0, 0.0, 0.0, 0.0, 0.0, 0.0, 0.0, 0.0]
twist: 
  twist: 
    linear: 
      x: -0.0209222460108
      y: -0.00878499710944
      z: -0.0452164562283
    angular: 
      x: 0.00016139037325
      y: -3.88747866964e-06
      z: 0.0013442003401
  covariance: [0.0, 0.0, 0.0, 0.0, 0.0, 0.0, 0.0, 0.0, 0.0, 0.0, 0.0, 0.0, 0.0, 0.0, 0.0, 0.0, 0.0, 0.0, 0.0, 0.0, 0.0, 0.0, 0.0, 0.0, 0.0, 0.0, 0.0, 0.0, 0.0, 0.0, 0.0, 0.0, 0.0, 0.0, 0.0, 0.0]
---
header: 
  seq: 603
  stamp: 
    secs: 25
    nsecs: 512000000
  frame_id: "map"
child_frame_id: "base_link"
pose: 
  pose: 
    position: 
      x: -0.00106653338298
      y: -0.0162817109376
      z: -0.0638065263629
    orientation: 
      x: -0.00155859906017
      y: 0.00101441483958
      z: -0.000607041059102
      w: -0.999998086278
  covariance: [0.0, 0.0, 0.0, 0.0, 0.0, 0.0, 0.0, 0.0, 0.0, 0.0, 0.0, 0.0, 0.0, 0.0, 0.0, 0.0, 0.0, 0.0, 0.0, 0.0, 0.0, 0.0, 0.0, 0.0, 0.0, 0.0, 0.0, 0.0, 0.0, 0.0, 0.0, 0.0, 0.0, 0.0, 0.0, 0.0]
twist: 
  twist: 
    linear: 
      x: -0.0217892047309
      y: -0.00916575568547
      z: -0.045235808098
    angular: 
      x: -0.00248469226062
      y: -0.00010506605031
      z: -0.0013183420524
  covariance: [0.0, 0.0, 0.0, 0.0, 0.0, 0.0, 0.0, 0.0, 0.0, 0.0, 0.0, 0.0, 0.0, 0.0, 0.0, 0.0, 0.0, 0.0, 0.0, 0.0, 0.0, 0.0, 0.0, 0.0, 0.0, 0.0, 0.0, 0.0, 0.0, 0.0, 0.0, 0.0, 0.0, 0.0, 0.0, 0.0]
---
header: 
  seq: 604
  stamp: 
    secs: 25
    nsecs: 552000000
  frame_id: "map"
child_frame_id: "base_link"
pose: 
  pose: 
    position: 
      x: -0.00133149756584
      y: -0.0164819601923
      z: -0.0644560232759
    orientation: 
      x: -0.00157625807521
      y: 0.00101529846226
      z: -0.000622213924566
      w: -0.999998086278
  covariance: [0.0, 0.0, 0.0, 0.0, 0.0, 0.0, 0.0, 0.0, 0.0, 0.0, 0.0, 0.0, 0.0, 0.0, 0.0, 0.0, 0.0, 0.0, 0.0, 0.0, 0.0, 0.0, 0.0, 0.0, 0.0, 0.0, 0.0, 0.0, 0.0, 0.0, 0.0, 0.0, 0.0, 0.0, 0.0, 0.0]
twist: 
  twist: 
    linear: 
      x: -0.0217141883473
      y: -0.00951306882364
      z: -0.0457124733928
    angular: 
      x: 0.000320035644108
      y: 0.00208456534892
      z: -0.00130864721723
  covariance: [0.0, 0.0, 0.0, 0.0, 0.0, 0.0, 0.0, 0.0, 0.0, 0.0, 0.0, 0.0, 0.0, 0.0, 0.0, 0.0, 0.0, 0.0, 0.0, 0.0, 0.0, 0.0, 0.0, 0.0, 0.0, 0.0, 0.0, 0.0, 0.0, 0.0, 0.0, 0.0, 0.0, 0.0, 0.0, 0.0]
---
header: 
  seq: 605
  stamp: 
    secs: 25
    nsecs: 584000000
  frame_id: "map"
child_frame_id: "base_link"
pose: 
  pose: 
    position: 
      x: -0.00179294659756
      y: -0.0167873371392
      z: -0.0653700381517
    orientation: 
      x: -0.0015676138142
      y: 0.00100608941702
      z: -0.000622298218263
      w: -0.999998086278
  covariance: [0.0, 0.0, 0.0, 0.0, 0.0, 0.0, 0.0, 0.0, 0.0, 0.0, 0.0, 0.0, 0.0, 0.0, 0.0, 0.0, 0.0, 0.0, 0.0, 0.0, 0.0, 0.0, 0.0, 0.0, 0.0, 0.0, 0.0, 0.0, 0.0, 0.0, 0.0, 0.0, 0.0, 0.0, 0.0, 0.0]
twist: 
  twist: 
    linear: 
      x: -0.0217366247964
      y: -0.00979133930737
      z: -0.0464718946649
    angular: 
      x: -0.000179762020707
      y: -0.000913114810828
      z: 0.000238938053371
  covariance: [0.0, 0.0, 0.0, 0.0, 0.0, 0.0, 0.0, 0.0, 0.0, 0.0, 0.0, 0.0, 0.0, 0.0, 0.0, 0.0, 0.0, 0.0, 0.0, 0.0, 0.0, 0.0, 0.0, 0.0, 0.0, 0.0, 0.0, 0.0, 0.0, 0.0, 0.0, 0.0, 0.0, 0.0, 0.0, 0.0]
---
header: 
  seq: 606
  stamp: 
    secs: 25
    nsecs: 612000000
  frame_id: "map"
child_frame_id: "base_link"
pose: 
  pose: 
    position: 
      x: -0.00177497486584
      y: -0.0169031210244
      z: -0.0657481253147
    orientation: 
      x: -0.00157391450052
      y: 0.00099153897901
      z: -0.000628072336509
      w: -0.999998128424
  covariance: [0.0, 0.0, 0.0, 0.0, 0.0, 0.0, 0.0, 0.0, 0.0, 0.0, 0.0, 0.0, 0.0, 0.0, 0.0, 0.0, 0.0, 0.0, 0.0, 0.0, 0.0, 0.0, 0.0, 0.0, 0.0, 0.0, 0.0, 0.0, 0.0, 0.0, 0.0, 0.0, 0.0, 0.0, 0.0, 0.0]
twist: 
  twist: 
    linear: 
      x: -0.0217350775469
      y: -0.010160288979
      z: -0.0472744375373
    angular: 
      x: 0.00208573741838
      y: 0.00102696882095
      z: 0.00084069831064
  covariance: [0.0, 0.0, 0.0, 0.0, 0.0, 0.0, 0.0, 0.0, 0.0, 0.0, 0.0, 0.0, 0.0, 0.0, 0.0, 0.0, 0.0, 0.0, 0.0, 0.0, 0.0, 0.0, 0.0, 0.0, 0.0, 0.0, 0.0, 0.0, 0.0, 0.0, 0.0, 0.0, 0.0, 0.0, 0.0, 0.0]
---
header: 
  seq: 607
  stamp: 
    secs: 25
    nsecs: 652000000
  frame_id: "map"
child_frame_id: "base_link"
pose: 
  pose: 
    position: 
      x: -0.00086649536388
      y: -0.0167294833809
      z: -0.0650771185756
    orientation: 
      x: -0.00155822093215
      y: 0.000985722508121
      z: -0.000640674244214
      w: -0.999998086278
  covariance: [0.0, 0.0, 0.0, 0.0, 0.0, 0.0, 0.0, 0.0, 0.0, 0.0, 0.0, 0.0, 0.0, 0.0, 0.0, 0.0, 0.0, 0.0, 0.0, 0.0, 0.0, 0.0, 0.0, 0.0, 0.0, 0.0, 0.0, 0.0, 0.0, 0.0, 0.0, 0.0, 0.0, 0.0, 0.0, 0.0]
twist: 
  twist: 
    linear: 
      x: -0.0213606400351
      y: -0.0103629807286
      z: -0.0470867886419
    angular: 
      x: 0.000859482155647
      y: 7.99796471256e-05
      z: 0.000519834924489
  covariance: [0.0, 0.0, 0.0, 0.0, 0.0, 0.0, 0.0, 0.0, 0.0, 0.0, 0.0, 0.0, 0.0, 0.0, 0.0, 0.0, 0.0, 0.0, 0.0, 0.0, 0.0, 0.0, 0.0, 0.0, 0.0, 0.0, 0.0, 0.0, 0.0, 0.0, 0.0, 0.0, 0.0, 0.0, 0.0, 0.0]
---
header: 
  seq: 608
  stamp: 
    secs: 25
    nsecs: 684000000
  frame_id: "map"
child_frame_id: "base_link"
pose: 
  pose: 
    position: 
      x: 8.85644403752e-05
      y: -0.0165790766478
      z: -0.0645767226815
    orientation: 
      x: -0.00156063904584
      y: 0.000962154085099
      z: -0.0006764569186
      w: -0.999998128424
  covariance: [0.0, 0.0, 0.0, 0.0, 0.0, 0.0, 0.0, 0.0, 0.0, 0.0, 0.0, 0.0, 0.0, 0.0, 0.0, 0.0, 0.0, 0.0, 0.0, 0.0, 0.0, 0.0, 0.0, 0.0, 0.0, 0.0, 0.0, 0.0, 0.0, 0.0, 0.0, 0.0, 0.0, 0.0, 0.0, 0.0]
twist: 
  twist: 
    linear: 
      x: -0.0207004334804
      y: -0.0101185595438
      z: -0.0469151872772
    angular: 
      x: 0.000442102784291
      y: 0.000623490370344
      z: 0.00257968832739
  covariance: [0.0, 0.0, 0.0, 0.0, 0.0, 0.0, 0.0, 0.0, 0.0, 0.0, 0.0, 0.0, 0.0, 0.0, 0.0, 0.0, 0.0, 0.0, 0.0, 0.0, 0.0, 0.0, 0.0, 0.0, 0.0, 0.0, 0.0, 0.0, 0.0, 0.0, 0.0, 0.0, 0.0, 0.0, 0.0, 0.0]
---
header: 
  seq: 609
  stamp: 
    secs: 25
    nsecs: 716000000
  frame_id: "map"
child_frame_id: "base_link"
pose: 
  pose: 
    position: 
      x: 0.000637081102468
      y: -0.0165406819433
      z: -0.0643699839711
    orientation: 
      x: -0.00155710521369
      y: 0.000993856500032
      z: -0.000679070023207
      w: -0.999998044131
  covariance: [0.0, 0.0, 0.0, 0.0, 0.0, 0.0, 0.0, 0.0, 0.0, 0.0, 0.0, 0.0, 0.0, 0.0, 0.0, 0.0, 0.0, 0.0, 0.0, 0.0, 0.0, 0.0, 0.0, 0.0, 0.0, 0.0, 0.0, 0.0, 0.0, 0.0, 0.0, 0.0, 0.0, 0.0, 0.0, 0.0]
twist: 
  twist: 
    linear: 
      x: -0.0206928064231
      y: -0.011174506245
      z: -0.04691828671
    angular: 
      x: 0.00027636467712
      y: -0.00252911564894
      z: -0.000423932040576
  covariance: [0.0, 0.0, 0.0, 0.0, 0.0, 0.0, 0.0, 0.0, 0.0, 0.0, 0.0, 0.0, 0.0, 0.0, 0.0, 0.0, 0.0, 0.0, 0.0, 0.0, 0.0, 0.0, 0.0, 0.0, 0.0, 0.0, 0.0, 0.0, 0.0, 0.0, 0.0, 0.0, 0.0, 0.0, 0.0, 0.0]
---
header: 
  seq: 610
  stamp: 
    secs: 25
    nsecs: 752000000
  frame_id: "map"
child_frame_id: "base_link"
pose: 
  pose: 
    position: 
      x: 0.00116851390339
      y: -0.0165058933198
      z: -0.0640811771154
    orientation: 
      x: -0.00156852678326
      y: 0.0009704406947
      z: -0.000670134891323
      w: -0.999998128424
  covariance: [0.0, 0.0, 0.0, 0.0, 0.0, 0.0, 0.0, 0.0, 0.0, 0.0, 0.0, 0.0, 0.0, 0.0, 0.0, 0.0, 0.0, 0.0, 0.0, 0.0, 0.0, 0.0, 0.0, 0.0, 0.0, 0.0, 0.0, 0.0, 0.0, 0.0, 0.0, 0.0, 0.0, 0.0, 0.0, 0.0]
twist: 
  twist: 
    linear: 
      x: -0.0204465066131
      y: -0.0114758580292
      z: -0.0467434095157
    angular: 
      x: 0.00210475921631
      y: -0.000396858114982
      z: 0.000605298264418
  covariance: [0.0, 0.0, 0.0, 0.0, 0.0, 0.0, 0.0, 0.0, 0.0, 0.0, 0.0, 0.0, 0.0, 0.0, 0.0, 0.0, 0.0, 0.0, 0.0, 0.0, 0.0, 0.0, 0.0, 0.0, 0.0, 0.0, 0.0, 0.0, 0.0, 0.0, 0.0, 0.0, 0.0, 0.0, 0.0, 0.0]
---
header: 
  seq: 611
  stamp: 
    secs: 25
    nsecs: 784000000
  frame_id: "map"
child_frame_id: "base_link"
pose: 
  pose: 
    position: 
      x: 0.0016748753842
      y: -0.0165499467403
      z: -0.0639521703124
    orientation: 
      x: -0.0015762612033
      y: 0.000973511179048
      z: -0.000682526064785
      w: -0.999998044131
  covariance: [0.0, 0.0, 0.0, 0.0, 0.0, 0.0, 0.0, 0.0, 0.0, 0.0, 0.0, 0.0, 0.0, 0.0, 0.0, 0.0, 0.0, 0.0, 0.0, 0.0, 0.0, 0.0, 0.0, 0.0, 0.0, 0.0, 0.0, 0.0, 0.0, 0.0, 0.0, 0.0, 0.0, 0.0, 0.0, 0.0]
twist: 
  twist: 
    linear: 
      x: -0.020183520116
      y: -0.0121695380432
      z: -0.0475085113121
    angular: 
      x: -0.000689129461534
      y: 0.000278322433587
      z: 0.00282864761539
  covariance: [0.0, 0.0, 0.0, 0.0, 0.0, 0.0, 0.0, 0.0, 0.0, 0.0, 0.0, 0.0, 0.0, 0.0, 0.0, 0.0, 0.0, 0.0, 0.0, 0.0, 0.0, 0.0, 0.0, 0.0, 0.0, 0.0, 0.0, 0.0, 0.0, 0.0, 0.0, 0.0, 0.0, 0.0, 0.0, 0.0]
---
header: 
  seq: 612
  stamp: 
    secs: 25
    nsecs: 812000000
  frame_id: "map"
child_frame_id: "base_link"
pose: 
  pose: 
    position: 
      x: 0.00191358255688
      y: -0.016658609733
      z: -0.0640598759055
    orientation: 
      x: -0.00157211932877
      y: 0.000953776534618
      z: -0.000667016024533
      w: -0.999998128424
  covariance: [0.0, 0.0, 0.0, 0.0, 0.0, 0.0, 0.0, 0.0, 0.0, 0.0, 0.0, 0.0, 0.0, 0.0, 0.0, 0.0, 0.0, 0.0, 0.0, 0.0, 0.0, 0.0, 0.0, 0.0, 0.0, 0.0, 0.0, 0.0, 0.0, 0.0, 0.0, 0.0, 0.0, 0.0, 0.0, 0.0]
twist: 
  twist: 
    linear: 
      x: -0.0204174580575
      y: -0.0126883663848
      z: -0.0480338741788
    angular: 
      x: 0.000467488076538
      y: 0.00191180722322
      z: -0.00230479915626
  covariance: [0.0, 0.0, 0.0, 0.0, 0.0, 0.0, 0.0, 0.0, 0.0, 0.0, 0.0, 0.0, 0.0, 0.0, 0.0, 0.0, 0.0, 0.0, 0.0, 0.0, 0.0, 0.0, 0.0, 0.0, 0.0, 0.0, 0.0, 0.0, 0.0, 0.0, 0.0, 0.0, 0.0, 0.0, 0.0, 0.0]
---
header: 
  seq: 613
  stamp: 
    secs: 25
    nsecs: 852000000
  frame_id: "map"
child_frame_id: "base_link"
pose: 
  pose: 
    position: 
      x: 0.00214151269756
      y: -0.0167444497347
      z: -0.064112611115
    orientation: 
      x: -0.00156877546613
      y: 0.000927783885785
      z: -0.000658418067437
      w: -0.999998212718
  covariance: [0.0, 0.0, 0.0, 0.0, 0.0, 0.0, 0.0, 0.0, 0.0, 0.0, 0.0, 0.0, 0.0, 0.0, 0.0, 0.0, 0.0, 0.0, 0.0, 0.0, 0.0, 0.0, 0.0, 0.0, 0.0, 0.0, 0.0, 0.0, 0.0, 0.0, 0.0, 0.0, 0.0, 0.0, 0.0, 0.0]
twist: 
  twist: 
    linear: 
      x: -0.0208739430042
      y: -0.0129472933409
      z: -0.0482662613761
    angular: 
      x: 0.00191886967514
      y: -0.00156751170289
      z: 0.00151835684665
  covariance: [0.0, 0.0, 0.0, 0.0, 0.0, 0.0, 0.0, 0.0, 0.0, 0.0, 0.0, 0.0, 0.0, 0.0, 0.0, 0.0, 0.0, 0.0, 0.0, 0.0, 0.0, 0.0, 0.0, 0.0, 0.0, 0.0, 0.0, 0.0, 0.0, 0.0, 0.0, 0.0, 0.0, 0.0, 0.0, 0.0]
---
header: 
  seq: 614
  stamp: 
    secs: 25
    nsecs: 884000000
  frame_id: "map"
child_frame_id: "base_link"
pose: 
  pose: 
    position: 
      x: 0.00226851599291
      y: -0.0169453825802
      z: -0.0645160600543
    orientation: 
      x: -0.00156631940381
      y: 0.000927138532747
      z: -0.000634310070089
      w: -0.999998212718
  covariance: [0.0, 0.0, 0.0, 0.0, 0.0, 0.0, 0.0, 0.0, 0.0, 0.0, 0.0, 0.0, 0.0, 0.0, 0.0, 0.0, 0.0, 0.0, 0.0, 0.0, 0.0, 0.0, 0.0, 0.0, 0.0, 0.0, 0.0, 0.0, 0.0, 0.0, 0.0, 0.0, 0.0, 0.0, 0.0, 0.0]
twist: 
  twist: 
    linear: 
      x: -0.0203351500155
      y: -0.0132354373653
      z: -0.0489752730689
    angular: 
      x: -0.00114298914559
      y: -0.000152226406499
      z: -0.000779544760007
  covariance: [0.0, 0.0, 0.0, 0.0, 0.0, 0.0, 0.0, 0.0, 0.0, 0.0, 0.0, 0.0, 0.0, 0.0, 0.0, 0.0, 0.0, 0.0, 0.0, 0.0, 0.0, 0.0, 0.0, 0.0, 0.0, 0.0, 0.0, 0.0, 0.0, 0.0, 0.0, 0.0, 0.0, 0.0, 0.0, 0.0]
---
header: 
  seq: 615
  stamp: 
    secs: 25
    nsecs: 912000000
  frame_id: "map"
child_frame_id: "base_link"
pose: 
  pose: 
    position: 
      x: 0.00226083933376
      y: -0.017144555226
      z: -0.0650782287121
    orientation: 
      x: -0.00156966911103
      y: 0.000944103771146
      z: -0.000618589295594
      w: -0.999998170571
  covariance: [0.0, 0.0, 0.0, 0.0, 0.0, 0.0, 0.0, 0.0, 0.0, 0.0, 0.0, 0.0, 0.0, 0.0, 0.0, 0.0, 0.0, 0.0, 0.0, 0.0, 0.0, 0.0, 0.0, 0.0, 0.0, 0.0, 0.0, 0.0, 0.0, 0.0, 0.0, 0.0, 0.0, 0.0, 0.0, 0.0]
twist: 
  twist: 
    linear: 
      x: -0.0199314833028
      y: -0.0135333655209
      z: -0.0492168789495
    angular: 
      x: -0.0022407444194
      y: -0.000511991092935
      z: -0.000942349724937
  covariance: [0.0, 0.0, 0.0, 0.0, 0.0, 0.0, 0.0, 0.0, 0.0, 0.0, 0.0, 0.0, 0.0, 0.0, 0.0, 0.0, 0.0, 0.0, 0.0, 0.0, 0.0, 0.0, 0.0, 0.0, 0.0, 0.0, 0.0, 0.0, 0.0, 0.0, 0.0, 0.0, 0.0, 0.0, 0.0, 0.0]
---
header: 
  seq: 616
  stamp: 
    secs: 25
    nsecs: 952000000
  frame_id: "map"
child_frame_id: "base_link"
pose: 
  pose: 
    position: 
      x: 0.00228228257038
      y: -0.0173233989626
      z: -0.0654843971133
    orientation: 
      x: -0.00157759940689
      y: 0.000958541598042
      z: -0.000613447380076
      w: -0.999998170571
  covariance: [0.0, 0.0, 0.0, 0.0, 0.0, 0.0, 0.0, 0.0, 0.0, 0.0, 0.0, 0.0, 0.0, 0.0, 0.0, 0.0, 0.0, 0.0, 0.0, 0.0, 0.0, 0.0, 0.0, 0.0, 0.0, 0.0, 0.0, 0.0, 0.0, 0.0, 0.0, 0.0, 0.0, 0.0, 0.0, 0.0]
twist: 
  twist: 
    linear: 
      x: -0.0196631533194
      y: -0.0141390846503
      z: -0.0497143864091
    angular: 
      x: -0.00197337195277
      y: 0.000296955520753
      z: -0.00120408786461
  covariance: [0.0, 0.0, 0.0, 0.0, 0.0, 0.0, 0.0, 0.0, 0.0, 0.0, 0.0, 0.0, 0.0, 0.0, 0.0, 0.0, 0.0, 0.0, 0.0, 0.0, 0.0, 0.0, 0.0, 0.0, 0.0, 0.0, 0.0, 0.0, 0.0, 0.0, 0.0, 0.0, 0.0, 0.0, 0.0, 0.0]
---
header: 
  seq: 617
  stamp: 
    secs: 25
    nsecs: 984000000
  frame_id: "map"
child_frame_id: "base_link"
pose: 
  pose: 
    position: 
      x: 0.00216219364665
      y: -0.0176433529705
      z: -0.0663304105401
    orientation: 
      x: -0.00156039248266
      y: 0.00095064908617
      z: -0.00060400648601
      w: -0.999998170571
  covariance: [0.0, 0.0, 0.0, 0.0, 0.0, 0.0, 0.0, 0.0, 0.0, 0.0, 0.0, 0.0, 0.0, 0.0, 0.0, 0.0, 0.0, 0.0, 0.0, 0.0, 0.0, 0.0, 0.0, 0.0, 0.0, 0.0, 0.0, 0.0, 0.0, 0.0, 0.0, 0.0, 0.0, 0.0, 0.0, 0.0]
twist: 
  twist: 
    linear: 
      x: -0.0199565236012
      y: -0.0144746432993
      z: -0.049621895653
    angular: 
      x: -0.00190292485058
      y: 0.000807519827504
      z: -6.52982271276e-05
  covariance: [0.0, 0.0, 0.0, 0.0, 0.0, 0.0, 0.0, 0.0, 0.0, 0.0, 0.0, 0.0, 0.0, 0.0, 0.0, 0.0, 0.0, 0.0, 0.0, 0.0, 0.0, 0.0, 0.0, 0.0, 0.0, 0.0, 0.0, 0.0, 0.0, 0.0, 0.0, 0.0, 0.0, 0.0, 0.0, 0.0]
---
header: 
  seq: 618
  stamp: 
    secs: 26
    nsecs:  16000000
  frame_id: "map"
child_frame_id: "base_link"
pose: 
  pose: 
    position: 
      x: 0.00216027954593
      y: -0.0177486874163
      z: -0.0668767020106
    orientation: 
      x: -0.00154960472102
      y: 0.000942402277353
      z: -0.000598864570491
      w: -0.999998170571
  covariance: [0.0, 0.0, 0.0, 0.0, 0.0, 0.0, 0.0, 0.0, 0.0, 0.0, 0.0, 0.0, 0.0, 0.0, 0.0, 0.0, 0.0, 0.0, 0.0, 0.0, 0.0, 0.0, 0.0, 0.0, 0.0, 0.0, 0.0, 0.0, 0.0, 0.0, 0.0, 0.0, 0.0, 0.0, 0.0, 0.0]
twist: 
  twist: 
    linear: 
      x: -0.02011766293
      y: -0.0147544145085
      z: -0.0501994262894
    angular: 
      x: -0.00246160943061
      y: 0.000317734054988
      z: 7.99918780103e-05
  covariance: [0.0, 0.0, 0.0, 0.0, 0.0, 0.0, 0.0, 0.0, 0.0, 0.0, 0.0, 0.0, 0.0, 0.0, 0.0, 0.0, 0.0, 0.0, 0.0, 0.0, 0.0, 0.0, 0.0, 0.0, 0.0, 0.0, 0.0, 0.0, 0.0, 0.0, 0.0, 0.0, 0.0, 0.0, 0.0, 0.0]
---
header: 
  seq: 619
  stamp: 
    secs: 26
    nsecs:  52000000
  frame_id: "map"
child_frame_id: "base_link"
pose: 
  pose: 
    position: 
      x: 0.00256224675104
      y: -0.0174574386328
      z: -0.0666557401419
    orientation: 
      x: -0.0015534032469
      y: 0.000938620873629
      z: -0.000626428609417
      w: -0.999998170571
  covariance: [0.0, 0.0, 0.0, 0.0, 0.0, 0.0, 0.0, 0.0, 0.0, 0.0, 0.0, 0.0, 0.0, 0.0, 0.0, 0.0, 0.0, 0.0, 0.0, 0.0, 0.0, 0.0, 0.0, 0.0, 0.0, 0.0, 0.0, 0.0, 0.0, 0.0, 0.0, 0.0, 0.0, 0.0, 0.0, 0.0]
twist: 
  twist: 
    linear: 
      x: -0.0196473214393
      y: -0.0142753842628
      z: -0.0500017394296
    angular: 
      x: 0.000457075831946
      y: -0.00132161541842
      z: 0.00145948445424
  covariance: [0.0, 0.0, 0.0, 0.0, 0.0, 0.0, 0.0, 0.0, 0.0, 0.0, 0.0, 0.0, 0.0, 0.0, 0.0, 0.0, 0.0, 0.0, 0.0, 0.0, 0.0, 0.0, 0.0, 0.0, 0.0, 0.0, 0.0, 0.0, 0.0, 0.0, 0.0, 0.0, 0.0, 0.0, 0.0, 0.0]
---
header: 
  seq: 620
  stamp: 
    secs: 26
    nsecs:  84000000
  frame_id: "map"
child_frame_id: "base_link"
pose: 
  pose: 
    position: 
      x: 0.00291691720486
      y: -0.0171894263476
      z: -0.0666979029775
    orientation: 
      x: -0.00154603267271
      y: 0.000947162833863
      z: -0.000631654818633
      w: -0.999998170571
  covariance: [0.0, 0.0, 0.0, 0.0, 0.0, 0.0, 0.0, 0.0, 0.0, 0.0, 0.0, 0.0, 0.0, 0.0, 0.0, 0.0, 0.0, 0.0, 0.0, 0.0, 0.0, 0.0, 0.0, 0.0, 0.0, 0.0, 0.0, 0.0, 0.0, 0.0, 0.0, 0.0, 0.0, 0.0, 0.0, 0.0]
twist: 
  twist: 
    linear: 
      x: -0.0194758686217
      y: -0.0141430757145
      z: -0.050204550406
    angular: 
      x: 6.55378389638e-05
      y: -0.000263380119577
      z: 0.000206251948839
  covariance: [0.0, 0.0, 0.0, 0.0, 0.0, 0.0, 0.0, 0.0, 0.0, 0.0, 0.0, 0.0, 0.0, 0.0, 0.0, 0.0, 0.0, 0.0, 0.0, 0.0, 0.0, 0.0, 0.0, 0.0, 0.0, 0.0, 0.0, 0.0, 0.0, 0.0, 0.0, 0.0, 0.0, 0.0, 0.0, 0.0]
---
header: 
  seq: 621
  stamp: 
    secs: 26
    nsecs: 112000000
  frame_id: "map"
child_frame_id: "base_link"
pose: 
  pose: 
    position: 
      x: 0.00304655474611
      y: -0.0170694272965
      z: -0.0669988840818
    orientation: 
      x: -0.00154992483539
      y: 0.000936597310413
      z: -0.000646026893975
      w: -0.999998212718
  covariance: [0.0, 0.0, 0.0, 0.0, 0.0, 0.0, 0.0, 0.0, 0.0, 0.0, 0.0, 0.0, 0.0, 0.0, 0.0, 0.0, 0.0, 0.0, 0.0, 0.0, 0.0, 0.0, 0.0, 0.0, 0.0, 0.0, 0.0, 0.0, 0.0, 0.0, 0.0, 0.0, 0.0, 0.0, 0.0, 0.0]
twist: 
  twist: 
    linear: 
      x: -0.0197400782743
      y: -0.0137937102385
      z: -0.0503099287785
    angular: 
      x: 0.000430701998994
      y: 0.00051448616432
      z: 0.000553207471967
  covariance: [0.0, 0.0, 0.0, 0.0, 0.0, 0.0, 0.0, 0.0, 0.0, 0.0, 0.0, 0.0, 0.0, 0.0, 0.0, 0.0, 0.0, 0.0, 0.0, 0.0, 0.0, 0.0, 0.0, 0.0, 0.0, 0.0, 0.0, 0.0, 0.0, 0.0, 0.0, 0.0, 0.0, 0.0, 0.0, 0.0]
---
header: 
  seq: 622
  stamp: 
    secs: 26
    nsecs: 152000000
  frame_id: "map"
child_frame_id: "base_link"
pose: 
  pose: 
    position: 
      x: 0.00318614114076
      y: -0.0169333275408
      z: -0.067130856216
    orientation: 
      x: -0.00154113495373
      y: 0.000932727661725
      z: -0.000662084843258
      w: -0.999998170571
  covariance: [0.0, 0.0, 0.0, 0.0, 0.0, 0.0, 0.0, 0.0, 0.0, 0.0, 0.0, 0.0, 0.0, 0.0, 0.0, 0.0, 0.0, 0.0, 0.0, 0.0, 0.0, 0.0, 0.0, 0.0, 0.0, 0.0, 0.0, 0.0, 0.0, 0.0, 0.0, 0.0, 0.0, 0.0, 0.0, 0.0]
twist: 
  twist: 
    linear: 
      x: -0.0194179426937
      y: -0.0135818143786
      z: -0.0506121441615
    angular: 
      x: -0.000571810640395
      y: -0.000500979251228
      z: 0.00143399578519
  covariance: [0.0, 0.0, 0.0, 0.0, 0.0, 0.0, 0.0, 0.0, 0.0, 0.0, 0.0, 0.0, 0.0, 0.0, 0.0, 0.0, 0.0, 0.0, 0.0, 0.0, 0.0, 0.0, 0.0, 0.0, 0.0, 0.0, 0.0, 0.0, 0.0, 0.0, 0.0, 0.0, 0.0, 0.0, 0.0, 0.0]
---
header: 
  seq: 623
  stamp: 
    secs: 26
    nsecs: 184000000
  frame_id: "map"
child_frame_id: "base_link"
pose: 
  pose: 
    position: 
      x: 0.00321262935176
      y: -0.0168540924788
      z: -0.067606844008
    orientation: 
      x: -0.00154006451021
      y: 0.000922342723527
      z: -0.000648387117491
      w: -0.999998212718
  covariance: [0.0, 0.0, 0.0, 0.0, 0.0, 0.0, 0.0, 0.0, 0.0, 0.0, 0.0, 0.0, 0.0, 0.0, 0.0, 0.0, 0.0, 0.0, 0.0, 0.0, 0.0, 0.0, 0.0, 0.0, 0.0, 0.0, 0.0, 0.0, 0.0, 0.0, 0.0, 0.0, 0.0, 0.0, 0.0, 0.0]
twist: 
  twist: 
    linear: 
      x: -0.0197844791213
      y: -0.0138479834082
      z: -0.051291924079
    angular: 
      x: 2.59148364421e-05
      y: -0.000967310683336
      z: -0.000255065562669
  covariance: [0.0, 0.0, 0.0, 0.0, 0.0, 0.0, 0.0, 0.0, 0.0, 0.0, 0.0, 0.0, 0.0, 0.0, 0.0, 0.0, 0.0, 0.0, 0.0, 0.0, 0.0, 0.0, 0.0, 0.0, 0.0, 0.0, 0.0, 0.0, 0.0, 0.0, 0.0, 0.0, 0.0, 0.0, 0.0, 0.0]
---
header: 
  seq: 624
  stamp: 
    secs: 26
    nsecs: 212000000
  frame_id: "map"
child_frame_id: "base_link"
pose: 
  pose: 
    position: 
      x: 0.00311761186458
      y: -0.0168671850115
      z: -0.0681324824691
    orientation: 
      x: -0.0015356192113
      y: 0.000915115321029
      z: -0.00065635287186
      w: -0.999998254865
  covariance: [0.0, 0.0, 0.0, 0.0, 0.0, 0.0, 0.0, 0.0, 0.0, 0.0, 0.0, 0.0, 0.0, 0.0, 0.0, 0.0, 0.0, 0.0, 0.0, 0.0, 0.0, 0.0, 0.0, 0.0, 0.0, 0.0, 0.0, 0.0, 0.0, 0.0, 0.0, 0.0, 0.0, 0.0, 0.0, 0.0]
twist: 
  twist: 
    linear: 
      x: -0.0197858227959
      y: -0.0136949996841
      z: -0.051740039914
    angular: 
      x: 0.000188079284271
      y: -2.66518654826e-05
      z: 0.000302208907669
  covariance: [0.0, 0.0, 0.0, 0.0, 0.0, 0.0, 0.0, 0.0, 0.0, 0.0, 0.0, 0.0, 0.0, 0.0, 0.0, 0.0, 0.0, 0.0, 0.0, 0.0, 0.0, 0.0, 0.0, 0.0, 0.0, 0.0, 0.0, 0.0, 0.0, 0.0, 0.0, 0.0, 0.0, 0.0, 0.0, 0.0]
---
header: 
  seq: 625
  stamp: 
    secs: 26
    nsecs: 252000000
  frame_id: "map"
child_frame_id: "base_link"
pose: 
  pose: 
    position: 
      x: 0.00303638330661
      y: -0.0168629977852
      z: -0.0685372650623
    orientation: 
      x: -0.00150238438388
      y: 0.00090189510177
      z: -0.000648092089552
      w: -0.999998339159
  covariance: [0.0, 0.0, 0.0, 0.0, 0.0, 0.0, 0.0, 0.0, 0.0, 0.0, 0.0, 0.0, 0.0, 0.0, 0.0, 0.0, 0.0, 0.0, 0.0, 0.0, 0.0, 0.0, 0.0, 0.0, 0.0, 0.0, 0.0, 0.0, 0.0, 0.0, 0.0, 0.0, 0.0, 0.0, 0.0, 0.0]
twist: 
  twist: 
    linear: 
      x: -0.0203501337936
      y: -0.0137627461625
      z: -0.0523775244586
    angular: 
      x: 0.0022726461757
      y: -0.000820620392915
      z: 0.00217289035209
  covariance: [0.0, 0.0, 0.0, 0.0, 0.0, 0.0, 0.0, 0.0, 0.0, 0.0, 0.0, 0.0, 0.0, 0.0, 0.0, 0.0, 0.0, 0.0, 0.0, 0.0, 0.0, 0.0, 0.0, 0.0, 0.0, 0.0, 0.0, 0.0, 0.0, 0.0, 0.0, 0.0, 0.0, 0.0, 0.0, 0.0]
---
header: 
  seq: 626
  stamp: 
    secs: 26
    nsecs: 284000000
  frame_id: "map"
child_frame_id: "base_link"
pose: 
  pose: 
    position: 
      x: 0.0027751668822
      y: -0.0169438607991
      z: -0.0693370625377
    orientation: 
      x: -0.0015199277832
      y: 0.000903443566283
      z: -0.000651632424827
      w: -0.999998254865
  covariance: [0.0, 0.0, 0.0, 0.0, 0.0, 0.0, 0.0, 0.0, 0.0, 0.0, 0.0, 0.0, 0.0, 0.0, 0.0, 0.0, 0.0, 0.0, 0.0, 0.0, 0.0, 0.0, 0.0, 0.0, 0.0, 0.0, 0.0, 0.0, 0.0, 0.0, 0.0, 0.0, 0.0, 0.0, 0.0, 0.0]
twist: 
  twist: 
    linear: 
      x: -0.0207987705622
      y: -0.0140942487358
      z: -0.0528265425725
    angular: 
      x: 5.35820727237e-05
      y: -0.000221838330617
      z: -0.000608638569247
  covariance: [0.0, 0.0, 0.0, 0.0, 0.0, 0.0, 0.0, 0.0, 0.0, 0.0, 0.0, 0.0, 0.0, 0.0, 0.0, 0.0, 0.0, 0.0, 0.0, 0.0, 0.0, 0.0, 0.0, 0.0, 0.0, 0.0, 0.0, 0.0, 0.0, 0.0, 0.0, 0.0, 0.0, 0.0, 0.0, 0.0]
---
header: 
  seq: 627
  stamp: 
    secs: 26
    nsecs: 312000000
  frame_id: "map"
child_frame_id: "base_link"
pose: 
  pose: 
    position: 
      x: 0.00247479742393
      y: -0.0170791372657
      z: -0.0700191408396
    orientation: 
      x: -0.00154962079362
      y: 0.000911190622136
      z: -0.000671441443627
      w: -0.999998254865
  covariance: [0.0, 0.0, 0.0, 0.0, 0.0, 0.0, 0.0, 0.0, 0.0, 0.0, 0.0, 0.0, 0.0, 0.0, 0.0, 0.0, 0.0, 0.0, 0.0, 0.0, 0.0, 0.0, 0.0, 0.0, 0.0, 0.0, 0.0, 0.0, 0.0, 0.0, 0.0, 0.0, 0.0, 0.0, 0.0, 0.0]
twist: 
  twist: 
    linear: 
      x: -0.0212239187823
      y: -0.0142583429657
      z: -0.053183389468
    angular: 
      x: 0.00254971394315
      y: 0.000116951436212
      z: 0.00126102124341
  covariance: [0.0, 0.0, 0.0, 0.0, 0.0, 0.0, 0.0, 0.0, 0.0, 0.0, 0.0, 0.0, 0.0, 0.0, 0.0, 0.0, 0.0, 0.0, 0.0, 0.0, 0.0, 0.0, 0.0, 0.0, 0.0, 0.0, 0.0, 0.0, 0.0, 0.0, 0.0, 0.0, 0.0, 0.0, 0.0, 0.0]
---
header: 
  seq: 628
  stamp: 
    secs: 26
    nsecs: 352000000
  frame_id: "map"
child_frame_id: "base_link"
pose: 
  pose: 
    position: 
      x: 0.00219905329868
      y: -0.0171896833926
      z: -0.0706067830324
    orientation: 
      x: -0.0015562258304
      y: 0.000920121967389
      z: -0.00071776083014
      w: -0.999998128424
  covariance: [0.0, 0.0, 0.0, 0.0, 0.0, 0.0, 0.0, 0.0, 0.0, 0.0, 0.0, 0.0, 0.0, 0.0, 0.0, 0.0, 0.0, 0.0, 0.0, 0.0, 0.0, 0.0, 0.0, 0.0, 0.0, 0.0, 0.0, 0.0, 0.0, 0.0, 0.0, 0.0, 0.0, 0.0, 0.0, 0.0]
twist: 
  twist: 
    linear: 
      x: -0.0218285850764
      y: -0.0145657886276
      z: -0.0535010857998
    angular: 
      x: 0.000505399890244
      y: -0.0035481932573
      z: 0.00113545358181
  covariance: [0.0, 0.0, 0.0, 0.0, 0.0, 0.0, 0.0, 0.0, 0.0, 0.0, 0.0, 0.0, 0.0, 0.0, 0.0, 0.0, 0.0, 0.0, 0.0, 0.0, 0.0, 0.0, 0.0, 0.0, 0.0, 0.0, 0.0, 0.0, 0.0, 0.0, 0.0, 0.0, 0.0, 0.0, 0.0, 0.0]
---
header: 
  seq: 629
  stamp: 
    secs: 26
    nsecs: 384000000
  frame_id: "map"
child_frame_id: "base_link"
pose: 
  pose: 
    position: 
      x: 0.00169820932206
      y: -0.0174306649715
      z: -0.0713392645121
    orientation: 
      x: -0.00153992253213
      y: 0.000912305414511
      z: -0.000717845123837
      w: -0.999998212718
  covariance: [0.0, 0.0, 0.0, 0.0, 0.0, 0.0, 0.0, 0.0, 0.0, 0.0, 0.0, 0.0, 0.0, 0.0, 0.0, 0.0, 0.0, 0.0, 0.0, 0.0, 0.0, 0.0, 0.0, 0.0, 0.0, 0.0, 0.0, 0.0, 0.0, 0.0, 0.0, 0.0, 0.0, 0.0, 0.0, 0.0]
twist: 
  twist: 
    linear: 
      x: -0.0218613519967
      y: -0.0152696732371
      z: -0.0538780003416
    angular: 
      x: -0.00262621301226
      y: 0.00359685928561
      z: -0.000125003862195
  covariance: [0.0, 0.0, 0.0, 0.0, 0.0, 0.0, 0.0, 0.0, 0.0, 0.0, 0.0, 0.0, 0.0, 0.0, 0.0, 0.0, 0.0, 0.0, 0.0, 0.0, 0.0, 0.0, 0.0, 0.0, 0.0, 0.0, 0.0, 0.0, 0.0, 0.0, 0.0, 0.0, 0.0, 0.0, 0.0, 0.0]
---
header: 
  seq: 630
  stamp: 
    secs: 26
    nsecs: 412000000
  frame_id: "map"
child_frame_id: "base_link"
pose: 
  pose: 
    position: 
      x: 0.00148093258031
      y: -0.0174785796553
      z: -0.0716796293855
    orientation: 
      x: -0.00151784200811
      y: 0.000934477640857
      z: -0.000749708141312
      w: -0.999998212718
  covariance: [0.0, 0.0, 0.0, 0.0, 0.0, 0.0, 0.0, 0.0, 0.0, 0.0, 0.0, 0.0, 0.0, 0.0, 0.0, 0.0, 0.0, 0.0, 0.0, 0.0, 0.0, 0.0, 0.0, 0.0, 0.0, 0.0, 0.0, 0.0, 0.0, 0.0, 0.0, 0.0, 0.0, 0.0, 0.0, 0.0]
twist: 
  twist: 
    linear: 
      x: -0.021969611669
      y: -0.0155556942783
      z: -0.0545496731965
    angular: 
      x: 0.000556325481739
      y: -0.00091515731765
      z: 0.00158512359485
  covariance: [0.0, 0.0, 0.0, 0.0, 0.0, 0.0, 0.0, 0.0, 0.0, 0.0, 0.0, 0.0, 0.0, 0.0, 0.0, 0.0, 0.0, 0.0, 0.0, 0.0, 0.0, 0.0, 0.0, 0.0, 0.0, 0.0, 0.0, 0.0, 0.0, 0.0, 0.0, 0.0, 0.0, 0.0, 0.0, 0.0]
---
header: 
  seq: 631
  stamp: 
    secs: 26
    nsecs: 452000000
  frame_id: "map"
child_frame_id: "base_link"
pose: 
  pose: 
    position: 
      x: 0.00174961437006
      y: -0.0171164348722
      z: -0.0708668828011
    orientation: 
      x: -0.00151171984909
      y: 0.000962584979003
      z: -0.000754428588345
      w: -0.999998128424
  covariance: [0.0, 0.0, 0.0, 0.0, 0.0, 0.0, 0.0, 0.0, 0.0, 0.0, 0.0, 0.0, 0.0, 0.0, 0.0, 0.0, 0.0, 0.0, 0.0, 0.0, 0.0, 0.0, 0.0, 0.0, 0.0, 0.0, 0.0, 0.0, 0.0, 0.0, 0.0, 0.0, 0.0, 0.0, 0.0, 0.0]
twist: 
  twist: 
    linear: 
      x: -0.0218115602993
      y: -0.0155162284668
      z: -0.0549865914445
    angular: 
      x: 0.00279849069193
      y: 0.0018302827375
      z: -0.00065800343873
  covariance: [0.0, 0.0, 0.0, 0.0, 0.0, 0.0, 0.0, 0.0, 0.0, 0.0, 0.0, 0.0, 0.0, 0.0, 0.0, 0.0, 0.0, 0.0, 0.0, 0.0, 0.0, 0.0, 0.0, 0.0, 0.0, 0.0, 0.0, 0.0, 0.0, 0.0, 0.0, 0.0, 0.0, 0.0, 0.0, 0.0]
---
header: 
  seq: 632
  stamp: 
    secs: 26
    nsecs: 484000000
  frame_id: "map"
child_frame_id: "base_link"
pose: 
  pose: 
    position: 
      x: 0.00191997864749
      y: -0.0167945791036
      z: -0.0703133046627
    orientation: 
      x: -0.00151317879271
      y: 0.00095653268744
      z: -0.000757210280347
      w: -0.999998128424
  covariance: [0.0, 0.0, 0.0, 0.0, 0.0, 0.0, 0.0, 0.0, 0.0, 0.0, 0.0, 0.0, 0.0, 0.0, 0.0, 0.0, 0.0, 0.0, 0.0, 0.0, 0.0, 0.0, 0.0, 0.0, 0.0, 0.0, 0.0, 0.0, 0.0, 0.0, 0.0, 0.0, 0.0, 0.0, 0.0, 0.0]
twist: 
  twist: 
    linear: 
      x: -0.0218702482545
      y: -0.0158005310634
      z: -0.0550965269653
    angular: 
      x: -0.000705541693605
      y: -0.00111544935498
      z: 6.38343044557e-05
  covariance: [0.0, 0.0, 0.0, 0.0, 0.0, 0.0, 0.0, 0.0, 0.0, 0.0, 0.0, 0.0, 0.0, 0.0, 0.0, 0.0, 0.0, 0.0, 0.0, 0.0, 0.0, 0.0, 0.0, 0.0, 0.0, 0.0, 0.0, 0.0, 0.0, 0.0, 0.0, 0.0, 0.0, 0.0, 0.0, 0.0]
---
header: 
  seq: 633
  stamp: 
    secs: 26
    nsecs: 512000000
  frame_id: "map"
child_frame_id: "base_link"
pose: 
  pose: 
    position: 
      x: 0.00191983755212
      y: -0.0166614037007
      z: -0.0700156912208
    orientation: 
      x: -0.00150389411774
      y: 0.00094343112967
      z: -0.000765766090594
      w: -0.999998170571
  covariance: [0.0, 0.0, 0.0, 0.0, 0.0, 0.0, 0.0, 0.0, 0.0, 0.0, 0.0, 0.0, 0.0, 0.0, 0.0, 0.0, 0.0, 0.0, 0.0, 0.0, 0.0, 0.0, 0.0, 0.0, 0.0, 0.0, 0.0, 0.0, 0.0, 0.0, 0.0, 0.0, 0.0, 0.0, 0.0, 0.0]
twist: 
  twist: 
    linear: 
      x: -0.0219661652766
      y: -0.0161765791587
      z: -0.0554011154337
    angular: 
      x: -0.00256623141468
      y: -0.000290240364848
      z: 0.00231951964088
  covariance: [0.0, 0.0, 0.0, 0.0, 0.0, 0.0, 0.0, 0.0, 0.0, 0.0, 0.0, 0.0, 0.0, 0.0, 0.0, 0.0, 0.0, 0.0, 0.0, 0.0, 0.0, 0.0, 0.0, 0.0, 0.0, 0.0, 0.0, 0.0, 0.0, 0.0, 0.0, 0.0, 0.0, 0.0, 0.0, 0.0]
---
header: 
  seq: 634
  stamp: 
    secs: 26
    nsecs: 552000000
  frame_id: "map"
child_frame_id: "base_link"
pose: 
  pose: 
    position: 
      x: 0.00192964402959
      y: -0.0165257249027
      z: -0.0697079077363
    orientation: 
      x: -0.0014867071968
      y: 0.000924115422445
      z: -0.000784184263394
      w: -0.999998128424
  covariance: [0.0, 0.0, 0.0, 0.0, 0.0, 0.0, 0.0, 0.0, 0.0, 0.0, 0.0, 0.0, 0.0, 0.0, 0.0, 0.0, 0.0, 0.0, 0.0, 0.0, 0.0, 0.0, 0.0, 0.0, 0.0, 0.0, 0.0, 0.0, 0.0, 0.0, 0.0, 0.0, 0.0, 0.0, 0.0, 0.0]
twist: 
  twist: 
    linear: 
      x: -0.0223118634119
      y: -0.0162897297074
      z: -0.0552862651498
    angular: 
      x: -5.75202575419e-05
      y: -0.00011721138435
      z: 0.00120703876019
  covariance: [0.0, 0.0, 0.0, 0.0, 0.0, 0.0, 0.0, 0.0, 0.0, 0.0, 0.0, 0.0, 0.0, 0.0, 0.0, 0.0, 0.0, 0.0, 0.0, 0.0, 0.0, 0.0, 0.0, 0.0, 0.0, 0.0, 0.0, 0.0, 0.0, 0.0, 0.0, 0.0, 0.0, 0.0, 0.0, 0.0]
---
header: 
  seq: 635
  stamp: 
    secs: 26
    nsecs: 584000000
  frame_id: "map"
child_frame_id: "base_link"
pose: 
  pose: 
    position: 
      x: 0.00176289596129
      y: -0.0164801497012
      z: -0.0694919228554
    orientation: 
      x: -0.00150241963659
      y: 0.000931350130671
      z: -0.000761719993137
      w: -0.999998170571
  covariance: [0.0, 0.0, 0.0, 0.0, 0.0, 0.0, 0.0, 0.0, 0.0, 0.0, 0.0, 0.0, 0.0, 0.0, 0.0, 0.0, 0.0, 0.0, 0.0, 0.0, 0.0, 0.0, 0.0, 0.0, 0.0, 0.0, 0.0, 0.0, 0.0, 0.0, 0.0, 0.0, 0.0, 0.0, 0.0, 0.0]
twist: 
  twist: 
    linear: 
      x: -0.0227208090615
      y: -0.0167626249012
      z: -0.0551742854173
    angular: 
      x: 0.000801066635177
      y: -0.00134906242602
      z: -0.00103153823875
  covariance: [0.0, 0.0, 0.0, 0.0, 0.0, 0.0, 0.0, 0.0, 0.0, 0.0, 0.0, 0.0, 0.0, 0.0, 0.0, 0.0, 0.0, 0.0, 0.0, 0.0, 0.0, 0.0, 0.0, 0.0, 0.0, 0.0, 0.0, 0.0, 0.0, 0.0, 0.0, 0.0, 0.0, 0.0, 0.0, 0.0]
---
header: 
  seq: 636
  stamp: 
    secs: 26
    nsecs: 612000000
  frame_id: "map"
child_frame_id: "base_link"
pose: 
  pose: 
    position: 
      x: 0.0015228142729
      y: -0.0165452528745
      z: -0.0696186497808
    orientation: 
      x: -0.00150417130324
      y: 0.000913985032278
      z: -0.000752194805374
      w: -0.999998170571
  covariance: [0.0, 0.0, 0.0, 0.0, 0.0, 0.0, 0.0, 0.0, 0.0, 0.0, 0.0, 0.0, 0.0, 0.0, 0.0, 0.0, 0.0, 0.0, 0.0, 0.0, 0.0, 0.0, 0.0, 0.0, 0.0, 0.0, 0.0, 0.0, 0.0, 0.0, 0.0, 0.0, 0.0, 0.0, 0.0, 0.0]
twist: 
  twist: 
    linear: 
      x: -0.0228238630498
      y: -0.0171314469941
      z: -0.0555559582616
    angular: 
      x: -0.000122378114611
      y: -0.000346011860529
      z: 0.00066189293284
  covariance: [0.0, 0.0, 0.0, 0.0, 0.0, 0.0, 0.0, 0.0, 0.0, 0.0, 0.0, 0.0, 0.0, 0.0, 0.0, 0.0, 0.0, 0.0, 0.0, 0.0, 0.0, 0.0, 0.0, 0.0, 0.0, 0.0, 0.0, 0.0, 0.0, 0.0, 0.0, 0.0, 0.0, 0.0, 0.0, 0.0]
---
header: 
  seq: 637
  stamp: 
    secs: 26
    nsecs: 652000000
  frame_id: "map"
child_frame_id: "base_link"
pose: 
  pose: 
    position: 
      x: 0.00131865835283
      y: -0.0165965929627
      z: -0.0696508958936
    orientation: 
      x: -0.00147812821402
      y: 0.000916285451722
      z: -0.000766693321262
      w: -0.999998170571
  covariance: [0.0, 0.0, 0.0, 0.0, 0.0, 0.0, 0.0, 0.0, 0.0, 0.0, 0.0, 0.0, 0.0, 0.0, 0.0, 0.0, 0.0, 0.0, 0.0, 0.0, 0.0, 0.0, 0.0, 0.0, 0.0, 0.0, 0.0, 0.0, 0.0, 0.0, 0.0, 0.0, 0.0, 0.0, 0.0, 0.0]
twist: 
  twist: 
    linear: 
      x: -0.0230013818274
      y: -0.0176778214821
      z: -0.0562161449811
    angular: 
      x: -0.000771463150159
      y: -3.42135681421e-05
      z: -0.000240920053329
  covariance: [0.0, 0.0, 0.0, 0.0, 0.0, 0.0, 0.0, 0.0, 0.0, 0.0, 0.0, 0.0, 0.0, 0.0, 0.0, 0.0, 0.0, 0.0, 0.0, 0.0, 0.0, 0.0, 0.0, 0.0, 0.0, 0.0, 0.0, 0.0, 0.0, 0.0, 0.0, 0.0, 0.0, 0.0, 0.0, 0.0]
---
header: 
  seq: 638
  stamp: 
    secs: 26
    nsecs: 684000000
  frame_id: "map"
child_frame_id: "base_link"
pose: 
  pose: 
    position: 
      x: 0.000896590005141
      y: -0.0167917516083
      z: -0.0699788033962
    orientation: 
      x: -0.00146735372616
      y: 0.000932882131571
      z: -0.000762562930108
      w: -0.999998254865
  covariance: [0.0, 0.0, 0.0, 0.0, 0.0, 0.0, 0.0, 0.0, 0.0, 0.0, 0.0, 0.0, 0.0, 0.0, 0.0, 0.0, 0.0, 0.0, 0.0, 0.0, 0.0, 0.0, 0.0, 0.0, 0.0, 0.0, 0.0, 0.0, 0.0, 0.0, 0.0, 0.0, 0.0, 0.0, 0.0, 0.0]
twist: 
  twist: 
    linear: 
      x: -0.0236772813232
      y: -0.0180395485981
      z: -0.0569237003553
    angular: 
      x: -0.00151067529805
      y: -0.000636774173472
      z: 0.000996118877083
  covariance: [0.0, 0.0, 0.0, 0.0, 0.0, 0.0, 0.0, 0.0, 0.0, 0.0, 0.0, 0.0, 0.0, 0.0, 0.0, 0.0, 0.0, 0.0, 0.0, 0.0, 0.0, 0.0, 0.0, 0.0, 0.0, 0.0, 0.0, 0.0, 0.0, 0.0, 0.0, 0.0, 0.0, 0.0, 0.0, 0.0]
---
header: 
  seq: 639
  stamp: 
    secs: 26
    nsecs: 712000000
  frame_id: "map"
child_frame_id: "base_link"
pose: 
  pose: 
    position: 
      x: 0.000465226417873
      y: -0.0170221272856
      z: -0.070461332798
    orientation: 
      x: -0.00144747154718
      y: 0.000921762175384
      z: -0.000750508931433
      w: -0.999998254865
  covariance: [0.0, 0.0, 0.0, 0.0, 0.0, 0.0, 0.0, 0.0, 0.0, 0.0, 0.0, 0.0, 0.0, 0.0, 0.0, 0.0, 0.0, 0.0, 0.0, 0.0, 0.0, 0.0, 0.0, 0.0, 0.0, 0.0, 0.0, 0.0, 0.0, 0.0, 0.0, 0.0, 0.0, 0.0, 0.0, 0.0]
twist: 
  twist: 
    linear: 
      x: -0.024193130992
      y: -0.0182659245812
      z: -0.0567972048327
    angular: 
      x: -0.000661111436784
      y: 0.00137546949554
      z: 0.000639527861495
  covariance: [0.0, 0.0, 0.0, 0.0, 0.0, 0.0, 0.0, 0.0, 0.0, 0.0, 0.0, 0.0, 0.0, 0.0, 0.0, 0.0, 0.0, 0.0, 0.0, 0.0, 0.0, 0.0, 0.0, 0.0, 0.0, 0.0, 0.0, 0.0, 0.0, 0.0, 0.0, 0.0, 0.0, 0.0, 0.0, 0.0]
---
header: 
  seq: 640
  stamp: 
    secs: 26
    nsecs: 752000000
  frame_id: "map"
child_frame_id: "base_link"
pose: 
  pose: 
    position: 
      x: 7.77554305387e-05
      y: -0.0172146540135
      z: -0.0707405433059
    orientation: 
      x: -0.00141542792388
      y: 0.000923591282755
      z: -0.00074098374367
      w: -0.999998339159
  covariance: [0.0, 0.0, 0.0, 0.0, 0.0, 0.0, 0.0, 0.0, 0.0, 0.0, 0.0, 0.0, 0.0, 0.0, 0.0, 0.0, 0.0, 0.0, 0.0, 0.0, 0.0, 0.0, 0.0, 0.0, 0.0, 0.0, 0.0, 0.0, 0.0, 0.0, 0.0, 0.0, 0.0, 0.0, 0.0, 0.0]
twist: 
  twist: 
    linear: 
      x: -0.0244407629082
      y: -0.0186807891973
      z: -0.0571597565017
    angular: 
      x: -0.00406209426001
      y: 0.00130408117548
      z: -0.000559786625672
  covariance: [0.0, 0.0, 0.0, 0.0, 0.0, 0.0, 0.0, 0.0, 0.0, 0.0, 0.0, 0.0, 0.0, 0.0, 0.0, 0.0, 0.0, 0.0, 0.0, 0.0, 0.0, 0.0, 0.0, 0.0, 0.0, 0.0, 0.0, 0.0, 0.0, 0.0, 0.0, 0.0, 0.0, 0.0, 0.0, 0.0]
---
header: 
  seq: 641
  stamp: 
    secs: 26
    nsecs: 784000000
  frame_id: "map"
child_frame_id: "base_link"
pose: 
  pose: 
    position: 
      x: -0.000579109997489
      y: -0.0176055245101
      z: -0.0714681819081
    orientation: 
      x: -0.00141515238474
      y: 0.000918464781294
      z: -0.000756409490225
      w: -0.999998339159
  covariance: [0.0, 0.0, 0.0, 0.0, 0.0, 0.0, 0.0, 0.0, 0.0, 0.0, 0.0, 0.0, 0.0, 0.0, 0.0, 0.0, 0.0, 0.0, 0.0, 0.0, 0.0, 0.0, 0.0, 0.0, 0.0, 0.0, 0.0, 0.0, 0.0, 0.0, 0.0, 0.0, 0.0, 0.0, 0.0, 0.0]
twist: 
  twist: 
    linear: 
      x: -0.0251942261526
      y: -0.0198721756173
      z: -0.0575124386729
    angular: 
      x: 0.000573999481276
      y: -0.000119505610201
      z: 0.00413990626112
  covariance: [0.0, 0.0, 0.0, 0.0, 0.0, 0.0, 0.0, 0.0, 0.0, 0.0, 0.0, 0.0, 0.0, 0.0, 0.0, 0.0, 0.0, 0.0, 0.0, 0.0, 0.0, 0.0, 0.0, 0.0, 0.0, 0.0, 0.0, 0.0, 0.0, 0.0, 0.0, 0.0, 0.0, 0.0, 0.0, 0.0]
---
header: 
  seq: 642
  stamp: 
    secs: 26
    nsecs: 816000000
  frame_id: "map"
child_frame_id: "base_link"
pose: 
  pose: 
    position: 
      x: -0.000970996741671
      y: -0.0177307613194
      z: -0.0718726217747
    orientation: 
      x: -0.00142171325788
      y: 0.000927574303996
      z: -0.000756325196528
      w: -0.999998339159
  covariance: [0.0, 0.0, 0.0, 0.0, 0.0, 0.0, 0.0, 0.0, 0.0, 0.0, 0.0, 0.0, 0.0, 0.0, 0.0, 0.0, 0.0, 0.0, 0.0, 0.0, 0.0, 0.0, 0.0, 0.0, 0.0, 0.0, 0.0, 0.0, 0.0, 0.0, 0.0, 0.0, 0.0, 0.0, 0.0, 0.0]
twist: 
  twist: 
    linear: 
      x: -0.0252732609868
      y: -0.0199336593688
      z: -0.0581789587184
    angular: 
      x: -0.000669083674438
      y: -6.67618442094e-05
      z: 0.000809636432678
  covariance: [0.0, 0.0, 0.0, 0.0, 0.0, 0.0, 0.0, 0.0, 0.0, 0.0, 0.0, 0.0, 0.0, 0.0, 0.0, 0.0, 0.0, 0.0, 0.0, 0.0, 0.0, 0.0, 0.0, 0.0, 0.0, 0.0, 0.0, 0.0, 0.0, 0.0, 0.0, 0.0, 0.0, 0.0, 0.0, 0.0]
---
header: 
  seq: 643
  stamp: 
    secs: 26
    nsecs: 852000000
  frame_id: "map"
child_frame_id: "base_link"
pose: 
  pose: 
    position: 
      x: -0.000935914053116
      y: -0.017335139215
      z: -0.0715484246612
    orientation: 
      x: -0.00140938621019
      y: 0.00089447478689
      z: -0.000758306098408
      w: -0.999998381305
  covariance: [0.0, 0.0, 0.0, 0.0, 0.0, 0.0, 0.0, 0.0, 0.0, 0.0, 0.0, 0.0, 0.0, 0.0, 0.0, 0.0, 0.0, 0.0, 0.0, 0.0, 0.0, 0.0, 0.0, 0.0, 0.0, 0.0, 0.0, 0.0, 0.0, 0.0, 0.0, 0.0, 0.0, 0.0, 0.0, 0.0]
twist: 
  twist: 
    linear: 
      x: -0.025536495577
      y: -0.0200641617723
      z: -0.0581829769738
    angular: 
      x: 0.000922618317418
      y: -0.000846332521178
      z: -0.000729861494619
  covariance: [0.0, 0.0, 0.0, 0.0, 0.0, 0.0, 0.0, 0.0, 0.0, 0.0, 0.0, 0.0, 0.0, 0.0, 0.0, 0.0, 0.0, 0.0, 0.0, 0.0, 0.0, 0.0, 0.0, 0.0, 0.0, 0.0, 0.0, 0.0, 0.0, 0.0, 0.0, 0.0, 0.0, 0.0, 0.0, 0.0]
---
header: 
  seq: 644
  stamp: 
    secs: 26
    nsecs: 884000000
  frame_id: "map"
child_frame_id: "base_link"
pose: 
  pose: 
    position: 
      x: -0.00107864139136
      y: -0.0169901959598
      z: -0.0713031291962
    orientation: 
      x: -0.00140684439302
      y: 0.000901344064653
      z: -0.000737359114698
      w: -0.999998339159
  covariance: [0.0, 0.0, 0.0, 0.0, 0.0, 0.0, 0.0, 0.0, 0.0, 0.0, 0.0, 0.0, 0.0, 0.0, 0.0, 0.0, 0.0, 0.0, 0.0, 0.0, 0.0, 0.0, 0.0, 0.0, 0.0, 0.0, 0.0, 0.0, 0.0, 0.0, 0.0, 0.0, 0.0, 0.0, 0.0, 0.0]
twist: 
  twist: 
    linear: 
      x: -0.0258912126175
      y: -0.0198467357297
      z: -0.0591312584147
    angular: 
      x: -0.0017881160602
      y: -0.00114656018559
      z: -0.000807008065749
  covariance: [0.0, 0.0, 0.0, 0.0, 0.0, 0.0, 0.0, 0.0, 0.0, 0.0, 0.0, 0.0, 0.0, 0.0, 0.0, 0.0, 0.0, 0.0, 0.0, 0.0, 0.0, 0.0, 0.0, 0.0, 0.0, 0.0, 0.0, 0.0, 0.0, 0.0, 0.0, 0.0, 0.0, 0.0, 0.0, 0.0]
---
header: 
  seq: 645
  stamp: 
    secs: 26
    nsecs: 912000000
  frame_id: "map"
child_frame_id: "base_link"
pose: 
  pose: 
    position: 
      x: -0.00131954648532
      y: -0.0168525557965
      z: -0.0714961141348
    orientation: 
      x: -0.00142573832307
      y: 0.000912024545278
      z: -0.000736347590334
      w: -0.999998339159
  covariance: [0.0, 0.0, 0.0, 0.0, 0.0, 0.0, 0.0, 0.0, 0.0, 0.0, 0.0, 0.0, 0.0, 0.0, 0.0, 0.0, 0.0, 0.0, 0.0, 0.0, 0.0, 0.0, 0.0, 0.0, 0.0, 0.0, 0.0, 0.0, 0.0, 0.0, 0.0, 0.0, 0.0, 0.0, 0.0, 0.0]
twist: 
  twist: 
    linear: 
      x: -0.0256192682876
      y: -0.0195057576734
      z: -0.0596542088037
    angular: 
      x: 0.000528126198333
      y: -0.000837575178593
      z: -0.00227776844986
  covariance: [0.0, 0.0, 0.0, 0.0, 0.0, 0.0, 0.0, 0.0, 0.0, 0.0, 0.0, 0.0, 0.0, 0.0, 0.0, 0.0, 0.0, 0.0, 0.0, 0.0, 0.0, 0.0, 0.0, 0.0, 0.0, 0.0, 0.0, 0.0, 0.0, 0.0, 0.0, 0.0, 0.0, 0.0, 0.0, 0.0]
---
header: 
  seq: 646
  stamp: 
    secs: 26
    nsecs: 952000000
  frame_id: "map"
child_frame_id: "base_link"
pose: 
  pose: 
    position: 
      x: -0.00150829670019
      y: -0.0166955236346
      z: -0.0715538933873
    orientation: 
      x: -0.00144105752947
      y: 0.000899872444052
      z: -0.000687035777576
      w: -0.999998339159
  covariance: [0.0, 0.0, 0.0, 0.0, 0.0, 0.0, 0.0, 0.0, 0.0, 0.0, 0.0, 0.0, 0.0, 0.0, 0.0, 0.0, 0.0, 0.0, 0.0, 0.0, 0.0, 0.0, 0.0, 0.0, 0.0, 0.0, 0.0, 0.0, 0.0, 0.0, 0.0, 0.0, 0.0, 0.0, 0.0, 0.0]
twist: 
  twist: 
    linear: 
      x: -0.0252751496567
      y: -0.0194078289874
      z: -0.0594734262923
    angular: 
      x: 0.00067589484388
      y: 0.00339062139392
      z: 0.000761330942623
  covariance: [0.0, 0.0, 0.0, 0.0, 0.0, 0.0, 0.0, 0.0, 0.0, 0.0, 0.0, 0.0, 0.0, 0.0, 0.0, 0.0, 0.0, 0.0, 0.0, 0.0, 0.0, 0.0, 0.0, 0.0, 0.0, 0.0, 0.0, 0.0, 0.0, 0.0, 0.0, 0.0, 0.0, 0.0, 0.0, 0.0]
---
header: 
  seq: 647
  stamp: 
    secs: 26
    nsecs: 984000000
  frame_id: "map"
child_frame_id: "base_link"
pose: 
  pose: 
    position: 
      x: -0.00190294999629
      y: -0.0166458785534
      z: -0.072054259479
    orientation: 
      x: -0.00144692190947
      y: 0.000882716989188
      z: -0.000702377230434
      w: -0.999998339159
  covariance: [0.0, 0.0, 0.0, 0.0, 0.0, 0.0, 0.0, 0.0, 0.0, 0.0, 0.0, 0.0, 0.0, 0.0, 0.0, 0.0, 0.0, 0.0, 0.0, 0.0, 0.0, 0.0, 0.0, 0.0, 0.0, 0.0, 0.0, 0.0, 0.0, 0.0, 0.0, 0.0, 0.0, 0.0, 0.0, 0.0]
twist: 
  twist: 
    linear: 
      x: -0.0248818749413
      y: -0.0199469755917
      z: -0.0596124320831
    angular: 
      x: 0.000635390169919
      y: -0.000116252616863
      z: 0.00403762236238
  covariance: [0.0, 0.0, 0.0, 0.0, 0.0, 0.0, 0.0, 0.0, 0.0, 0.0, 0.0, 0.0, 0.0, 0.0, 0.0, 0.0, 0.0, 0.0, 0.0, 0.0, 0.0, 0.0, 0.0, 0.0, 0.0, 0.0, 0.0, 0.0, 0.0, 0.0, 0.0, 0.0, 0.0, 0.0, 0.0, 0.0]
---
header: 
  seq: 648
  stamp: 
    secs: 27
    nsecs:  16000000
  frame_id: "map"
child_frame_id: "base_link"
pose: 
  pose: 
    position: 
      x: -0.00229750550352
      y: -0.0167285017669
      z: -0.0725678652525
    orientation: 
      x: -0.00145062492582
      y: 0.000899720587804
      z: -0.000690744700245
      w: -0.999998339159
  covariance: [0.0, 0.0, 0.0, 0.0, 0.0, 0.0, 0.0, 0.0, 0.0, 0.0, 0.0, 0.0, 0.0, 0.0, 0.0, 0.0, 0.0, 0.0, 0.0, 0.0, 0.0, 0.0, 0.0, 0.0, 0.0, 0.0, 0.0, 0.0, 0.0, 0.0, 0.0, 0.0, 0.0, 0.0, 0.0, 0.0]
twist: 
  twist: 
    linear: 
      x: -0.0249954327735
      y: -0.0206920927756
      z: -0.0600258514388
    angular: 
      x: -0.00216358271427
      y: -0.00146480137482
      z: -0.000352232891601
  covariance: [0.0, 0.0, 0.0, 0.0, 0.0, 0.0, 0.0, 0.0, 0.0, 0.0, 0.0, 0.0, 0.0, 0.0, 0.0, 0.0, 0.0, 0.0, 0.0, 0.0, 0.0, 0.0, 0.0, 0.0, 0.0, 0.0, 0.0, 0.0, 0.0, 0.0, 0.0, 0.0, 0.0, 0.0, 0.0, 0.0]
---
header: 
  seq: 649
  stamp: 
    secs: 27
    nsecs:  52000000
  frame_id: "map"
child_frame_id: "base_link"
pose: 
  pose: 
    position: 
      x: -0.0026475454215
      y: -0.0168030299246
      z: -0.0729216635227
    orientation: 
      x: -0.00146905701037
      y: 0.000866049124793
      z: -0.000690196791214
      w: -0.999998297012
  covariance: [0.0, 0.0, 0.0, 0.0, 0.0, 0.0, 0.0, 0.0, 0.0, 0.0, 0.0, 0.0, 0.0, 0.0, 0.0, 0.0, 0.0, 0.0, 0.0, 0.0, 0.0, 0.0, 0.0, 0.0, 0.0, 0.0, 0.0, 0.0, 0.0, 0.0, 0.0, 0.0, 0.0, 0.0, 0.0, 0.0]
twist: 
  twist: 
    linear: 
      x: -0.0254649188349
      y: -0.0212704965217
      z: -0.0604132538337
    angular: 
      x: 0.0014685849892
      y: 0.00253108236939
      z: 0.0003145095543
  covariance: [0.0, 0.0, 0.0, 0.0, 0.0, 0.0, 0.0, 0.0, 0.0, 0.0, 0.0, 0.0, 0.0, 0.0, 0.0, 0.0, 0.0, 0.0, 0.0, 0.0, 0.0, 0.0, 0.0, 0.0, 0.0, 0.0, 0.0, 0.0, 0.0, 0.0, 0.0, 0.0, 0.0, 0.0, 0.0, 0.0]
---
header: 
  seq: 650
  stamp: 
    secs: 27
    nsecs:  84000000
  frame_id: "map"
child_frame_id: "base_link"
pose: 
  pose: 
    position: 
      x: -0.00326199340634
      y: -0.0170599166304
      z: -0.0736736655235
    orientation: 
      x: -0.00146089336338
      y: 0.000867186760431
      z: -0.00069230413364
      w: -0.999998381305
  covariance: [0.0, 0.0, 0.0, 0.0, 0.0, 0.0, 0.0, 0.0, 0.0, 0.0, 0.0, 0.0, 0.0, 0.0, 0.0, 0.0, 0.0, 0.0, 0.0, 0.0, 0.0, 0.0, 0.0, 0.0, 0.0, 0.0, 0.0, 0.0, 0.0, 0.0, 0.0, 0.0, 0.0, 0.0, 0.0, 0.0]
twist: 
  twist: 
    linear: 
      x: -0.0259261573036
      y: -0.0219907864091
      z: -0.0607889453633
    angular: 
      x: -0.00122904055752
      y: -0.000407063373132
      z: 0.00145552831236
  covariance: [0.0, 0.0, 0.0, 0.0, 0.0, 0.0, 0.0, 0.0, 0.0, 0.0, 0.0, 0.0, 0.0, 0.0, 0.0, 0.0, 0.0, 0.0, 0.0, 0.0, 0.0, 0.0, 0.0, 0.0, 0.0, 0.0, 0.0, 0.0, 0.0, 0.0, 0.0, 0.0, 0.0, 0.0, 0.0, 0.0]
---
header: 
  seq: 651
  stamp: 
    secs: 27
    nsecs: 112000000
  frame_id: "map"
child_frame_id: "base_link"
pose: 
  pose: 
    position: 
      x: -0.00383961340412
      y: -0.01735640876
      z: -0.0744519755244
    orientation: 
      x: -0.00143724610023
      y: 0.000890349005547
      z: -0.000707898467589
      w: -0.999998381305
  covariance: [0.0, 0.0, 0.0, 0.0, 0.0, 0.0, 0.0, 0.0, 0.0, 0.0, 0.0, 0.0, 0.0, 0.0, 0.0, 0.0, 0.0, 0.0, 0.0, 0.0, 0.0, 0.0, 0.0, 0.0, 0.0, 0.0, 0.0, 0.0, 0.0, 0.0, 0.0, 0.0, 0.0, 0.0, 0.0, 0.0]
twist: 
  twist: 
    linear: 
      x: -0.0267505404711
      y: -0.0223842618489
      z: -0.0616810426215
    angular: 
      x: 0.00111683260184
      y: -0.000284079636913
      z: 0.00195326725952
  covariance: [0.0, 0.0, 0.0, 0.0, 0.0, 0.0, 0.0, 0.0, 0.0, 0.0, 0.0, 0.0, 0.0, 0.0, 0.0, 0.0, 0.0, 0.0, 0.0, 0.0, 0.0, 0.0, 0.0, 0.0, 0.0, 0.0, 0.0, 0.0, 0.0, 0.0, 0.0, 0.0, 0.0, 0.0, 0.0, 0.0]
---
header: 
  seq: 652
  stamp: 
    secs: 27
    nsecs: 152000000
  frame_id: "map"
child_frame_id: "base_link"
pose: 
  pose: 
    position: 
      x: -0.00436209188774
      y: -0.0176194105297
      z: -0.0751048400998
    orientation: 
      x: -0.00144218915589
      y: 0.000863018729342
      z: -0.000689775322729
      w: -0.999998381305
  covariance: [0.0, 0.0, 0.0, 0.0, 0.0, 0.0, 0.0, 0.0, 0.0, 0.0, 0.0, 0.0, 0.0, 0.0, 0.0, 0.0, 0.0, 0.0, 0.0, 0.0, 0.0, 0.0, 0.0, 0.0, 0.0, 0.0, 0.0, 0.0, 0.0, 0.0, 0.0, 0.0, 0.0, 0.0, 0.0, 0.0]
twist: 
  twist: 
    linear: 
      x: -0.027288122545
      y: -0.0230377662596
      z: -0.0619875304867
    angular: 
      x: 0.000423763645813
      y: 0.00109610636719
      z: 0.000109812041046
  covariance: [0.0, 0.0, 0.0, 0.0, 0.0, 0.0, 0.0, 0.0, 0.0, 0.0, 0.0, 0.0, 0.0, 0.0, 0.0, 0.0, 0.0, 0.0, 0.0, 0.0, 0.0, 0.0, 0.0, 0.0, 0.0, 0.0, 0.0, 0.0, 0.0, 0.0, 0.0, 0.0, 0.0, 0.0, 0.0, 0.0]
---
header: 
  seq: 653
  stamp: 
    secs: 27
    nsecs: 184000000
  frame_id: "map"
child_frame_id: "base_link"
pose: 
  pose: 
    position: 
      x: -0.00520110549405
      y: -0.0181194022298
      z: -0.0762936398387
    orientation: 
      x: -0.00145825581031
      y: 0.000881525167685
      z: -0.000688173742486
      w: -0.999998297012
  covariance: [0.0, 0.0, 0.0, 0.0, 0.0, 0.0, 0.0, 0.0, 0.0, 0.0, 0.0, 0.0, 0.0, 0.0, 0.0, 0.0, 0.0, 0.0, 0.0, 0.0, 0.0, 0.0, 0.0, 0.0, 0.0, 0.0, 0.0, 0.0, 0.0, 0.0, 0.0, 0.0, 0.0, 0.0, 0.0, 0.0]
twist: 
  twist: 
    linear: 
      x: -0.0277966997087
      y: -0.024183046978
      z: -0.0628509183515
    angular: 
      x: 0.000494120584335
      y: -0.00202161981724
      z: 0.000174066721229
  covariance: [0.0, 0.0, 0.0, 0.0, 0.0, 0.0, 0.0, 0.0, 0.0, 0.0, 0.0, 0.0, 0.0, 0.0, 0.0, 0.0, 0.0, 0.0, 0.0, 0.0, 0.0, 0.0, 0.0, 0.0, 0.0, 0.0, 0.0, 0.0, 0.0, 0.0, 0.0, 0.0, 0.0, 0.0, 0.0, 0.0]
---
header: 
  seq: 654
  stamp: 
    secs: 27
    nsecs: 216000000
  frame_id: "map"
child_frame_id: "base_link"
pose: 
  pose: 
    position: 
      x: -0.00566803384572
      y: -0.0182916466147
      z: -0.0770418718457
    orientation: 
      x: -0.00147262739174
      y: 0.000878945648847
      z: -0.000694706504005
      w: -0.999998339159
  covariance: [0.0, 0.0, 0.0, 0.0, 0.0, 0.0, 0.0, 0.0, 0.0, 0.0, 0.0, 0.0, 0.0, 0.0, 0.0, 0.0, 0.0, 0.0, 0.0, 0.0, 0.0, 0.0, 0.0, 0.0, 0.0, 0.0, 0.0, 0.0, 0.0, 0.0, 0.0, 0.0, 0.0, 0.0, 0.0, 0.0]
twist: 
  twist: 
    linear: 
      x: -0.0273114988586
      y: -0.0244376588066
      z: -0.0636259283906
    angular: 
      x: -0.00100673548877
      y: -0.00245581311174
      z: -0.000490348495077
  covariance: [0.0, 0.0, 0.0, 0.0, 0.0, 0.0, 0.0, 0.0, 0.0, 0.0, 0.0, 0.0, 0.0, 0.0, 0.0, 0.0, 0.0, 0.0, 0.0, 0.0, 0.0, 0.0, 0.0, 0.0, 0.0, 0.0, 0.0, 0.0, 0.0, 0.0, 0.0, 0.0, 0.0, 0.0, 0.0, 0.0]
---
header: 
  seq: 655
  stamp: 
    secs: 27
    nsecs: 252000000
  frame_id: "map"
child_frame_id: "base_link"
pose: 
  pose: 
    position: 
      x: -0.00555913057178
      y: -0.0178326182067
      z: -0.0768790245056
    orientation: 
      x: -0.00147333538883
      y: 0.000866486748198
      z: -0.000687035777576
      w: -0.999998339159
  covariance: [0.0, 0.0, 0.0, 0.0, 0.0, 0.0, 0.0, 0.0, 0.0, 0.0, 0.0, 0.0, 0.0, 0.0, 0.0, 0.0, 0.0, 0.0, 0.0, 0.0, 0.0, 0.0, 0.0, 0.0, 0.0, 0.0, 0.0, 0.0, 0.0, 0.0, 0.0, 0.0, 0.0, 0.0, 0.0, 0.0]
twist: 
  twist: 
    linear: 
      x: -0.0267522691728
      y: -0.0240630890251
      z: -0.0639590058983
    angular: 
      x: -0.00044005154632
      y: 0.00103468273301
      z: 0.00125357275829
  covariance: [0.0, 0.0, 0.0, 0.0, 0.0, 0.0, 0.0, 0.0, 0.0, 0.0, 0.0, 0.0, 0.0, 0.0, 0.0, 0.0, 0.0, 0.0, 0.0, 0.0, 0.0, 0.0, 0.0, 0.0, 0.0, 0.0, 0.0, 0.0, 0.0, 0.0, 0.0, 0.0, 0.0, 0.0, 0.0, 0.0]
---
header: 
  seq: 656
  stamp: 
    secs: 27
    nsecs: 284000000
  frame_id: "map"
child_frame_id: "base_link"
pose: 
  pose: 
    position: 
      x: -0.00562578393146
      y: -0.017433507368
      z: -0.0771515071392
    orientation: 
      x: -0.00145075731385
      y: 0.000855064664138
      z: -0.00069032323176
      w: -0.999998339159
  covariance: [0.0, 0.0, 0.0, 0.0, 0.0, 0.0, 0.0, 0.0, 0.0, 0.0, 0.0, 0.0, 0.0, 0.0, 0.0, 0.0, 0.0, 0.0, 0.0, 0.0, 0.0, 0.0, 0.0, 0.0, 0.0, 0.0, 0.0, 0.0, 0.0, 0.0, 0.0, 0.0, 0.0, 0.0, 0.0, 0.0]
twist: 
  twist: 
    linear: 
      x: -0.0271555413755
      y: -0.0242909659285
      z: -0.0645058447942
    angular: 
      x: -0.000886711524799
      y: -0.00130185543094
      z: 0.000804900890216
  covariance: [0.0, 0.0, 0.0, 0.0, 0.0, 0.0, 0.0, 0.0, 0.0, 0.0, 0.0, 0.0, 0.0, 0.0, 0.0, 0.0, 0.0, 0.0, 0.0, 0.0, 0.0, 0.0, 0.0, 0.0, 0.0, 0.0, 0.0, 0.0, 0.0, 0.0, 0.0, 0.0, 0.0, 0.0, 0.0, 0.0]
---
header: 
  seq: 657
  stamp: 
    secs: 27
    nsecs: 316000000
  frame_id: "map"
child_frame_id: "base_link"
pose: 
  pose: 
    position: 
      x: -0.00582962902263
      y: -0.0173007939011
      z: -0.0776632130146
    orientation: 
      x: -0.00145363764347
      y: 0.000855113540489
      z: -0.000676414771751
      w: -0.999998339159
  covariance: [0.0, 0.0, 0.0, 0.0, 0.0, 0.0, 0.0, 0.0, 0.0, 0.0, 0.0, 0.0, 0.0, 0.0, 0.0, 0.0, 0.0, 0.0, 0.0, 0.0, 0.0, 0.0, 0.0, 0.0, 0.0, 0.0, 0.0, 0.0, 0.0, 0.0, 0.0, 0.0, 0.0, 0.0, 0.0, 0.0]
twist: 
  twist: 
    linear: 
      x: -0.0278524808631
      y: -0.0245957042163
      z: -0.0652042441312
    angular: 
      x: 0.00272806384601
      y: 0.000743181677535
      z: 0.00102476263419
  covariance: [0.0, 0.0, 0.0, 0.0, 0.0, 0.0, 0.0, 0.0, 0.0, 0.0, 0.0, 0.0, 0.0, 0.0, 0.0, 0.0, 0.0, 0.0, 0.0, 0.0, 0.0, 0.0, 0.0, 0.0, 0.0, 0.0, 0.0, 0.0, 0.0, 0.0, 0.0, 0.0, 0.0, 0.0, 0.0, 0.0]
---
header: 
  seq: 658
  stamp: 
    secs: 27
    nsecs: 352000000
  frame_id: "map"
child_frame_id: "base_link"
pose: 
  pose: 
    position: 
      x: -0.00600352976471
      y: -0.0171547718346
      z: -0.0781047418714
    orientation: 
      x: -0.00144121175236
      y: 0.000829213622955
      z: -0.000660188235075
      w: -0.999998465599
  covariance: [0.0, 0.0, 0.0, 0.0, 0.0, 0.0, 0.0, 0.0, 0.0, 0.0, 0.0, 0.0, 0.0, 0.0, 0.0, 0.0, 0.0, 0.0, 0.0, 0.0, 0.0, 0.0, 0.0, 0.0, 0.0, 0.0, 0.0, 0.0, 0.0, 0.0, 0.0, 0.0, 0.0, 0.0, 0.0, 0.0]
twist: 
  twist: 
    linear: 
      x: -0.027973172444
      y: -0.0246129546749
      z: -0.0662626255129
    angular: 
      x: 0.000910706876311
      y: -0.000242114503635
      z: -0.000333397474606
  covariance: [0.0, 0.0, 0.0, 0.0, 0.0, 0.0, 0.0, 0.0, 0.0, 0.0, 0.0, 0.0, 0.0, 0.0, 0.0, 0.0, 0.0, 0.0, 0.0, 0.0, 0.0, 0.0, 0.0, 0.0, 0.0, 0.0, 0.0, 0.0, 0.0, 0.0, 0.0, 0.0, 0.0, 0.0, 0.0, 0.0]
---
header: 
  seq: 659
  stamp: 
    secs: 27
    nsecs: 384000000
  frame_id: "map"
child_frame_id: "base_link"
pose: 
  pose: 
    position: 
      x: -0.00641790684313
      y: -0.0171525720507
      z: -0.0790888294578
    orientation: 
      x: -0.00142935087187
      y: 0.000844887640789
      z: -0.000658165186346
      w: -0.999998381305
  covariance: [0.0, 0.0, 0.0, 0.0, 0.0, 0.0, 0.0, 0.0, 0.0, 0.0, 0.0, 0.0, 0.0, 0.0, 0.0, 0.0, 0.0, 0.0, 0.0, 0.0, 0.0, 0.0, 0.0, 0.0, 0.0, 0.0, 0.0, 0.0, 0.0, 0.0, 0.0, 0.0, 0.0, 0.0, 0.0, 0.0]
twist: 
  twist: 
    linear: 
      x: -0.0281708782584
      y: -0.0252412616254
      z: -0.0675591364592
    angular: 
      x: -0.00188147416338
      y: -0.00143867137376
      z: 0.00110505067278
  covariance: [0.0, 0.0, 0.0, 0.0, 0.0, 0.0, 0.0, 0.0, 0.0, 0.0, 0.0, 0.0, 0.0, 0.0, 0.0, 0.0, 0.0, 0.0, 0.0, 0.0, 0.0, 0.0, 0.0, 0.0, 0.0, 0.0, 0.0, 0.0, 0.0, 0.0, 0.0, 0.0, 0.0, 0.0, 0.0, 0.0]
---
header: 
  seq: 660
  stamp: 
    secs: 27
    nsecs: 412000000
  frame_id: "map"
child_frame_id: "base_link"
pose: 
  pose: 
    position: 
      x: -0.00686132861301
      y: -0.0172921177
      z: -0.0801445990801
    orientation: 
      x: -0.00143120992243
      y: 0.000830107946976
      z: -0.000660989025196
      w: -0.999998423452
  covariance: [0.0, 0.0, 0.0, 0.0, 0.0, 0.0, 0.0, 0.0, 0.0, 0.0, 0.0, 0.0, 0.0, 0.0, 0.0, 0.0, 0.0, 0.0, 0.0, 0.0, 0.0, 0.0, 0.0, 0.0, 0.0, 0.0, 0.0, 0.0, 0.0, 0.0, 0.0, 0.0, 0.0, 0.0, 0.0, 0.0]
twist: 
  twist: 
    linear: 
      x: -0.028719430401
      y: -0.0252772204312
      z: -0.0684100983396
    angular: 
      x: -0.00167733244598
      y: -0.00182366464287
      z: 0.000608820468187
  covariance: [0.0, 0.0, 0.0, 0.0, 0.0, 0.0, 0.0, 0.0, 0.0, 0.0, 0.0, 0.0, 0.0, 0.0, 0.0, 0.0, 0.0, 0.0, 0.0, 0.0, 0.0, 0.0, 0.0, 0.0, 0.0, 0.0, 0.0, 0.0, 0.0, 0.0, 0.0, 0.0, 0.0, 0.0, 0.0, 0.0]
---
header: 
  seq: 661
  stamp: 
    secs: 27
    nsecs: 452000000
  frame_id: "map"
child_frame_id: "base_link"
pose: 
  pose: 
    position: 
      x: -0.00724968919531
      y: -0.0173955261707
      z: -0.0809266790748
    orientation: 
      x: -0.00140596179933
      y: 0.000807976262276
      z: -0.000634647244877
      w: -0.999998549893
  covariance: [0.0, 0.0, 0.0, 0.0, 0.0, 0.0, 0.0, 0.0, 0.0, 0.0, 0.0, 0.0, 0.0, 0.0, 0.0, 0.0, 0.0, 0.0, 0.0, 0.0, 0.0, 0.0, 0.0, 0.0, 0.0, 0.0, 0.0, 0.0, 0.0, 0.0, 0.0, 0.0, 0.0, 0.0, 0.0, 0.0]
twist: 
  twist: 
    linear: 
      x: -0.0288940693079
      y: -0.0257669844181
      z: -0.0694304937492
    angular: 
      x: -0.000273742480204
      y: -0.000256192288361
      z: -0.000662669364829
  covariance: [0.0, 0.0, 0.0, 0.0, 0.0, 0.0, 0.0, 0.0, 0.0, 0.0, 0.0, 0.0, 0.0, 0.0, 0.0, 0.0, 0.0, 0.0, 0.0, 0.0, 0.0, 0.0, 0.0, 0.0, 0.0, 0.0, 0.0, 0.0, 0.0, 0.0, 0.0, 0.0, 0.0, 0.0, 0.0, 0.0]
---
header: 
  seq: 662
  stamp: 
    secs: 27
    nsecs: 484000000
  frame_id: "map"
child_frame_id: "base_link"
pose: 
  pose: 
    position: 
      x: -0.00792790949345
      y: -0.0177162103355
      z: -0.0823034867644
    orientation: 
      x: -0.00140720813597
      y: 0.00079858126053
      z: -0.000609527723164
      w: -0.999998549893
  covariance: [0.0, 0.0, 0.0, 0.0, 0.0, 0.0, 0.0, 0.0, 0.0, 0.0, 0.0, 0.0, 0.0, 0.0, 0.0, 0.0, 0.0, 0.0, 0.0, 0.0, 0.0, 0.0, 0.0, 0.0, 0.0, 0.0, 0.0, 0.0, 0.0, 0.0, 0.0, 0.0, 0.0, 0.0, 0.0, 0.0]
twist: 
  twist: 
    linear: 
      x: -0.0294042460889
      y: -0.0262716927225
      z: -0.0706472026723
    angular: 
      x: 0.000835979590192
      y: 0.000363350991393
      z: -0.00337255443446
  covariance: [0.0, 0.0, 0.0, 0.0, 0.0, 0.0, 0.0, 0.0, 0.0, 0.0, 0.0, 0.0, 0.0, 0.0, 0.0, 0.0, 0.0, 0.0, 0.0, 0.0, 0.0, 0.0, 0.0, 0.0, 0.0, 0.0, 0.0, 0.0, 0.0, 0.0, 0.0, 0.0, 0.0, 0.0, 0.0, 0.0]
---
header: 
  seq: 663
  stamp: 
    secs: 27
    nsecs: 516000000
  frame_id: "map"
child_frame_id: "base_link"
pose: 
  pose: 
    position: 
      x: -0.00856183841825
      y: -0.0180780421942
      z: -0.0835074335337
    orientation: 
      x: -0.00141868498212
      y: 0.000797144254675
      z: -0.00057909769854
      w: -0.999998549893
  covariance: [0.0, 0.0, 0.0, 0.0, 0.0, 0.0, 0.0, 0.0, 0.0, 0.0, 0.0, 0.0, 0.0, 0.0, 0.0, 0.0, 0.0, 0.0, 0.0, 0.0, 0.0, 0.0, 0.0, 0.0, 0.0, 0.0, 0.0, 0.0, 0.0, 0.0, 0.0, 0.0, 0.0, 0.0, 0.0, 0.0]
twist: 
  twist: 
    linear: 
      x: -0.0298513610948
      y: -0.0265386176714
      z: -0.0712775228431
    angular: 
      x: -8.04850133136e-05
      y: -0.000372415612219
      z: -0.000131977838464
  covariance: [0.0, 0.0, 0.0, 0.0, 0.0, 0.0, 0.0, 0.0, 0.0, 0.0, 0.0, 0.0, 0.0, 0.0, 0.0, 0.0, 0.0, 0.0, 0.0, 0.0, 0.0, 0.0, 0.0, 0.0, 0.0, 0.0, 0.0, 0.0, 0.0, 0.0, 0.0, 0.0, 0.0, 0.0, 0.0, 0.0]
---
header: 
  seq: 664
  stamp: 
    secs: 27
    nsecs: 552000000
  frame_id: "map"
child_frame_id: "base_link"
pose: 
  pose: 
    position: 
      x: -0.00913085322827
      y: -0.018387330696
      z: -0.0845120847225
    orientation: 
      x: -0.0014227325613
      y: 0.000809953768536
      z: -0.000556506987738
      w: -0.999998549893
  covariance: [0.0, 0.0, 0.0, 0.0, 0.0, 0.0, 0.0, 0.0, 0.0, 0.0, 0.0, 0.0, 0.0, 0.0, 0.0, 0.0, 0.0, 0.0, 0.0, 0.0, 0.0, 0.0, 0.0, 0.0, 0.0, 0.0, 0.0, 0.0, 0.0, 0.0, 0.0, 0.0, 0.0, 0.0, 0.0, 0.0]
twist: 
  twist: 
    linear: 
      x: -0.0305615121976
      y: -0.0267843854122
      z: -0.0724103368901
    angular: 
