header: 
  seq: 556
  stamp: 
    secs: 23
    nsecs: 952000000
  frame_id: "map"
child_frame_id: "base_link"
pose: 
  pose: 
    position: 
      x: 0.0310308784246
      y: -0.00504850409925
      z: 8.06471729279
    orientation: 
      x: -0.0024582184585
      y: 0.00276467268035
      z: -0.0724267039145
      w: -0.997366858525
  covariance: [0.0, 0.0, 0.0, 0.0, 0.0, 0.0, 0.0, 0.0, 0.0, 0.0, 0.0, 0.0, 0.0, 0.0, 0.0, 0.0, 0.0, 0.0, 0.0, 0.0, 0.0, 0.0, 0.0, 0.0, 0.0, 0.0, 0.0, 0.0, 0.0, 0.0, 0.0, 0.0, 0.0, 0.0, 0.0, 0.0]
twist: 
  twist: 
    linear: 
      x: -0.0137646945405
      y: 0.033634802967
      z: -0.0423112853539
    angular: 
      x: 0.018774881959
      y: -0.00382256228477
      z: 0.452949523926
  covariance: [0.0, 0.0, 0.0, 0.0, 0.0, 0.0, 0.0, 0.0, 0.0, 0.0, 0.0, 0.0, 0.0, 0.0, 0.0, 0.0, 0.0, 0.0, 0.0, 0.0, 0.0, 0.0, 0.0, 0.0, 0.0, 0.0, 0.0, 0.0, 0.0, 0.0, 0.0, 0.0, 0.0, 0.0, 0.0, 0.0]
---
header: 
  seq: 557
  stamp: 
    secs: 23
    nsecs: 984000000
  frame_id: "map"
child_frame_id: "base_link"
pose: 
  pose: 
    position: 
      x: 0.0307298135012
      y: -0.00344806769863
      z: 8.06345081329
    orientation: 
      x: -0.00258365513524
      y: 0.00277104665033
      z: -0.0760767474361
      w: -0.997094716324
  covariance: [0.0, 0.0, 0.0, 0.0, 0.0, 0.0, 0.0, 0.0, 0.0, 0.0, 0.0, 0.0, 0.0, 0.0, 0.0, 0.0, 0.0, 0.0, 0.0, 0.0, 0.0, 0.0, 0.0, 0.0, 0.0, 0.0, 0.0, 0.0, 0.0, 0.0, 0.0, 0.0, 0.0, 0.0, 0.0, 0.0]
twist: 
  twist: 
    linear: 
      x: -0.0150098698577
      y: 0.0329507486245
      z: -0.0423076726632
    angular: 
      x: 0.0163308065385
      y: -0.000485043798108
      z: 0.461819678545
  covariance: [0.0, 0.0, 0.0, 0.0, 0.0, 0.0, 0.0, 0.0, 0.0, 0.0, 0.0, 0.0, 0.0, 0.0, 0.0, 0.0, 0.0, 0.0, 0.0, 0.0, 0.0, 0.0, 0.0, 0.0, 0.0, 0.0, 0.0, 0.0, 0.0, 0.0, 0.0, 0.0, 0.0, 0.0, 0.0, 0.0]
---
header: 
  seq: 558
  stamp: 
    secs: 24
    nsecs:  16000000
  frame_id: "map"
child_frame_id: "base_link"
pose: 
  pose: 
    position: 
      x: 0.0299632325768
      y: -0.00235840445384
      z: 8.06258964539
    orientation: 
      x: -0.00278854767128
      y: 0.00275462560121
      z: -0.0853985766555
      w: -0.996339149771
  covariance: [0.0, 0.0, 0.0, 0.0, 0.0, 0.0, 0.0, 0.0, 0.0, 0.0, 0.0, 0.0, 0.0, 0.0, 0.0, 0.0, 0.0, 0.0, 0.0, 0.0, 0.0, 0.0, 0.0, 0.0, 0.0, 0.0, 0.0, 0.0, 0.0, 0.0, 0.0, 0.0, 0.0, 0.0, 0.0, 0.0]
twist: 
  twist: 
    linear: 
      x: -0.0158511360899
      y: 0.0318484706981
      z: -0.0425708357597
    angular: 
      x: 0.0101723000407
      y: 0.000330149836373
      z: 0.478102624416
  covariance: [0.0, 0.0, 0.0, 0.0, 0.0, 0.0, 0.0, 0.0, 0.0, 0.0, 0.0, 0.0, 0.0, 0.0, 0.0, 0.0, 0.0, 0.0, 0.0, 0.0, 0.0, 0.0, 0.0, 0.0, 0.0, 0.0, 0.0, 0.0, 0.0, 0.0, 0.0, 0.0, 0.0, 0.0, 0.0, 0.0]
---
header: 
  seq: 559
  stamp: 
    secs: 24
    nsecs:  52000000
  frame_id: "map"
child_frame_id: "base_link"
pose: 
  pose: 
    position: 
      x: 0.0284345988184
      y: -0.00165059498977
      z: 8.06232070923
    orientation: 
      x: -0.00293105121322
      y: 0.00279330675121
      z: -0.095089022212
      w: -0.99546051442
  covariance: [0.0, 0.0, 0.0, 0.0, 0.0, 0.0, 0.0, 0.0, 0.0, 0.0, 0.0, 0.0, 0.0, 0.0, 0.0, 0.0, 0.0, 0.0, 0.0, 0.0, 0.0, 0.0, 0.0, 0.0, 0.0, 0.0, 0.0, 0.0, 0.0, 0.0, 0.0, 0.0, 0.0, 0.0, 0.0, 0.0]
twist: 
  twist: 
    linear: 
      x: -0.0169949771853
      y: 0.0315415245405
      z: -0.042480508428
    angular: 
      x: 0.00531593151391
      y: 0.00409282045439
      z: 0.501250326633
  covariance: [0.0, 0.0, 0.0, 0.0, 0.0, 0.0, 0.0, 0.0, 0.0, 0.0, 0.0, 0.0, 0.0, 0.0, 0.0, 0.0, 0.0, 0.0, 0.0, 0.0, 0.0, 0.0, 0.0, 0.0, 0.0, 0.0, 0.0, 0.0, 0.0, 0.0, 0.0, 0.0, 0.0, 0.0, 0.0, 0.0]
---
header: 
  seq: 560
  stamp: 
    secs: 24
    nsecs:  84000000
  frame_id: "map"
child_frame_id: "base_link"
pose: 
  pose: 
    position: 
      x: 0.0263674929738
      y: -0.000638717028778
      z: 8.06192493439
    orientation: 
      x: -0.00295314792818
      y: 0.00278348464733
      z: -0.100081105684
      w: -0.994971063068
  covariance: [0.0, 0.0, 0.0, 0.0, 0.0, 0.0, 0.0, 0.0, 0.0, 0.0, 0.0, 0.0, 0.0, 0.0, 0.0, 0.0, 0.0, 0.0, 0.0, 0.0, 0.0, 0.0, 0.0, 0.0, 0.0, 0.0, 0.0, 0.0, 0.0, 0.0, 0.0, 0.0, 0.0, 0.0, 0.0, 0.0]
twist: 
  twist: 
    linear: 
      x: -0.0190800476818
      y: 0.0311163131274
      z: -0.0415924518263
    angular: 
      x: 0.00216580135748
      y: 0.00538757396862
      z: 0.503258645535
  covariance: [0.0, 0.0, 0.0, 0.0, 0.0, 0.0, 0.0, 0.0, 0.0, 0.0, 0.0, 0.0, 0.0, 0.0, 0.0, 0.0, 0.0, 0.0, 0.0, 0.0, 0.0, 0.0, 0.0, 0.0, 0.0, 0.0, 0.0, 0.0, 0.0, 0.0, 0.0, 0.0, 0.0, 0.0, 0.0, 0.0]
---
header: 
  seq: 561
  stamp: 
    secs: 24
    nsecs: 116000000
  frame_id: "map"
child_frame_id: "base_link"
pose: 
  pose: 
    position: 
      x: 0.0247791483998
      y: 0.000158677663421
      z: 8.06161117554
    orientation: 
      x: -0.00298537790414
      y: 0.00267689380116
      z: -0.1102582209
      w: -0.993894885438
  covariance: [0.0, 0.0, 0.0, 0.0, 0.0, 0.0, 0.0, 0.0, 0.0, 0.0, 0.0, 0.0, 0.0, 0.0, 0.0, 0.0, 0.0, 0.0, 0.0, 0.0, 0.0, 0.0, 0.0, 0.0, 0.0, 0.0, 0.0, 0.0, 0.0, 0.0, 0.0, 0.0, 0.0, 0.0, 0.0, 0.0]
twist: 
  twist: 
    linear: 
      x: -0.01995673509
      y: 0.030470378174
      z: -0.0405592960164
    angular: 
      x: 0.00584387918934
      y: 0.01235938631
      z: 0.516203343868
  covariance: [0.0, 0.0, 0.0, 0.0, 0.0, 0.0, 0.0, 0.0, 0.0, 0.0, 0.0, 0.0, 0.0, 0.0, 0.0, 0.0, 0.0, 0.0, 0.0, 0.0, 0.0, 0.0, 0.0, 0.0, 0.0, 0.0, 0.0, 0.0, 0.0, 0.0, 0.0, 0.0, 0.0, 0.0, 0.0, 0.0]
---
header: 
  seq: 562
  stamp: 
    secs: 24
    nsecs: 152000000
  frame_id: "map"
child_frame_id: "base_link"
pose: 
  pose: 
    position: 
      x: 0.0233076550066
      y: 0.000829890079331
      z: 8.06143283844
    orientation: 
      x: -0.00294141917332
      y: 0.00245157269485
      z: -0.120787725917
      w: -0.992671067398
  covariance: [0.0, 0.0, 0.0, 0.0, 0.0, 0.0, 0.0, 0.0, 0.0, 0.0, 0.0, 0.0, 0.0, 0.0, 0.0, 0.0, 0.0, 0.0, 0.0, 0.0, 0.0, 0.0, 0.0, 0.0, 0.0, 0.0, 0.0, 0.0, 0.0, 0.0, 0.0, 0.0, 0.0, 0.0, 0.0, 0.0]
twist: 
  twist: 
    linear: 
      x: -0.0207308077138
      y: 0.0300197394677
      z: -0.039110635459
    angular: 
      x: -0.00263381772675
      y: 0.0167069733143
      z: 0.538651168346
  covariance: [0.0, 0.0, 0.0, 0.0, 0.0, 0.0, 0.0, 0.0, 0.0, 0.0, 0.0, 0.0, 0.0, 0.0, 0.0, 0.0, 0.0, 0.0, 0.0, 0.0, 0.0, 0.0, 0.0, 0.0, 0.0, 0.0, 0.0, 0.0, 0.0, 0.0, 0.0, 0.0, 0.0, 0.0, 0.0, 0.0]
---
header: 
  seq: 563
  stamp: 
    secs: 24
    nsecs: 184000000
  frame_id: "map"
child_frame_id: "base_link"
pose: 
  pose: 
    position: 
      x: 0.0212909262627
      y: 0.00175254850183
      z: 8.06103420258
    orientation: 
      x: -0.00283959924029
      y: 0.00234107491505
      z: -0.126240348002
      w: -0.991992840312
  covariance: [0.0, 0.0, 0.0, 0.0, 0.0, 0.0, 0.0, 0.0, 0.0, 0.0, 0.0, 0.0, 0.0, 0.0, 0.0, 0.0, 0.0, 0.0, 0.0, 0.0, 0.0, 0.0, 0.0, 0.0, 0.0, 0.0, 0.0, 0.0, 0.0, 0.0, 0.0, 0.0, 0.0, 0.0, 0.0, 0.0]
twist: 
  twist: 
    linear: 
      x: -0.0223882688458
      y: 0.0292890784769
      z: -0.0390441907874
    angular: 
      x: -0.00686492258683
      y: 0.0156637281179
      z: 0.554434597492
  covariance: [0.0, 0.0, 0.0, 0.0, 0.0, 0.0, 0.0, 0.0, 0.0, 0.0, 0.0, 0.0, 0.0, 0.0, 0.0, 0.0, 0.0, 0.0, 0.0, 0.0, 0.0, 0.0, 0.0, 0.0, 0.0, 0.0, 0.0, 0.0, 0.0, 0.0, 0.0, 0.0, 0.0, 0.0, 0.0, 0.0]
---
header: 
  seq: 564
  stamp: 
    secs: 24
    nsecs: 216000000
  frame_id: "map"
child_frame_id: "base_link"
pose: 
  pose: 
    position: 
      x: 0.019717361778
      y: 0.00247738673352
      z: 8.06059074402
    orientation: 
      x: -0.0027312901949
      y: 0.00204093160753
      z: -0.137290788066
      w: -0.990524907725
  covariance: [0.0, 0.0, 0.0, 0.0, 0.0, 0.0, 0.0, 0.0, 0.0, 0.0, 0.0, 0.0, 0.0, 0.0, 0.0, 0.0, 0.0, 0.0, 0.0, 0.0, 0.0, 0.0, 0.0, 0.0, 0.0, 0.0, 0.0, 0.0, 0.0, 0.0, 0.0, 0.0, 0.0, 0.0, 0.0, 0.0]
twist: 
  twist: 
    linear: 
      x: -0.0231832845906
      y: 0.0297525557539
      z: -0.038250045815
    angular: 
      x: 0.00230667414144
      y: 0.0214526765049
      z: 0.567195057869
  covariance: [0.0, 0.0, 0.0, 0.0, 0.0, 0.0, 0.0, 0.0, 0.0, 0.0, 0.0, 0.0, 0.0, 0.0, 0.0, 0.0, 0.0, 0.0, 0.0, 0.0, 0.0, 0.0, 0.0, 0.0, 0.0, 0.0, 0.0, 0.0, 0.0, 0.0, 0.0, 0.0, 0.0, 0.0, 0.0, 0.0]
---
header: 
  seq: 565
  stamp: 
    secs: 24
    nsecs: 252000000
  frame_id: "map"
child_frame_id: "base_link"
pose: 
  pose: 
    position: 
      x: 0.018277220428
      y: 0.00310112419538
      z: 8.06028366089
    orientation: 
      x: -0.00263445145138
      y: 0.00169526169819
      z: -0.148753340015
      w: -0.988869421662
  covariance: [0.0, 0.0, 0.0, 0.0, 0.0, 0.0, 0.0, 0.0, 0.0, 0.0, 0.0, 0.0, 0.0, 0.0, 0.0, 0.0, 0.0, 0.0, 0.0, 0.0, 0.0, 0.0, 0.0, 0.0, 0.0, 0.0, 0.0, 0.0, 0.0, 0.0, 0.0, 0.0, 0.0, 0.0, 0.0, 0.0]
twist: 
  twist: 
    linear: 
      x: -0.0233522175397
      y: 0.029640481209
      z: -0.0385228639053
    angular: 
      x: -0.00212307996117
      y: 0.0184167269617
      z: 0.583643138409
  covariance: [0.0, 0.0, 0.0, 0.0, 0.0, 0.0, 0.0, 0.0, 0.0, 0.0, 0.0, 0.0, 0.0, 0.0, 0.0, 0.0, 0.0, 0.0, 0.0, 0.0, 0.0, 0.0, 0.0, 0.0, 0.0, 0.0, 0.0, 0.0, 0.0, 0.0, 0.0, 0.0, 0.0, 0.0, 0.0, 0.0]
---
header: 
  seq: 566
  stamp: 
    secs: 24
    nsecs: 284000000
  frame_id: "map"
child_frame_id: "base_link"
pose: 
  pose: 
    position: 
      x: 0.0163217410445
      y: 0.0039711096324
      z: 8.05965328217
    orientation: 
      x: -0.00259221438227
      y: 0.0015223242884
      z: -0.154601594568
      w: -0.987972325992
  covariance: [0.0, 0.0, 0.0, 0.0, 0.0, 0.0, 0.0, 0.0, 0.0, 0.0, 0.0, 0.0, 0.0, 0.0, 0.0, 0.0, 0.0, 0.0, 0.0, 0.0, 0.0, 0.0, 0.0, 0.0, 0.0, 0.0, 0.0, 0.0, 0.0, 0.0, 0.0, 0.0, 0.0, 0.0, 0.0, 0.0]
twist: 
  twist: 
    linear: 
      x: -0.0235812113517
      y: 0.0291662882554
      z: -0.0392654452499
    angular: 
      x: 0.000553426216356
      y: 0.0185128860176
      z: 0.595830261707
  covariance: [0.0, 0.0, 0.0, 0.0, 0.0, 0.0, 0.0, 0.0, 0.0, 0.0, 0.0, 0.0, 0.0, 0.0, 0.0, 0.0, 0.0, 0.0, 0.0, 0.0, 0.0, 0.0, 0.0, 0.0, 0.0, 0.0, 0.0, 0.0, 0.0, 0.0, 0.0, 0.0, 0.0, 0.0, 0.0, 0.0]
---
header: 
  seq: 567
  stamp: 
    secs: 24
    nsecs: 316000000
  frame_id: "map"
child_frame_id: "base_link"
pose: 
  pose: 
    position: 
      x: 0.0148257566616
      y: 0.00465123541653
      z: 8.05909633636
    orientation: 
      x: -0.00257937642752
      y: 0.0011939189671
      z: -0.16645649153
      w: -0.986044697728
  covariance: [0.0, 0.0, 0.0, 0.0, 0.0, 0.0, 0.0, 0.0, 0.0, 0.0, 0.0, 0.0, 0.0, 0.0, 0.0, 0.0, 0.0, 0.0, 0.0, 0.0, 0.0, 0.0, 0.0, 0.0, 0.0, 0.0, 0.0, 0.0, 0.0, 0.0, 0.0, 0.0, 0.0, 0.0, 0.0, 0.0]
twist: 
  twist: 
    linear: 
      x: -0.0237703915351
      y: 0.0291628424161
      z: -0.0391138792771
    angular: 
      x: 0.00532925408334
      y: 0.0136388875544
      z: 0.608340680599
  covariance: [0.0, 0.0, 0.0, 0.0, 0.0, 0.0, 0.0, 0.0, 0.0, 0.0, 0.0, 0.0, 0.0, 0.0, 0.0, 0.0, 0.0, 0.0, 0.0, 0.0, 0.0, 0.0, 0.0, 0.0, 0.0, 0.0, 0.0, 0.0, 0.0, 0.0, 0.0, 0.0, 0.0, 0.0, 0.0, 0.0]
---
header: 
  seq: 568
  stamp: 
    secs: 24
    nsecs: 352000000
  frame_id: "map"
child_frame_id: "base_link"
pose: 
  pose: 
    position: 
      x: 0.0134760066867
      y: 0.00523401657119
      z: 8.05860424042
    orientation: 
      x: -0.00265236242143
      y: 0.000925805247652
      z: -0.178617922521
      w: -0.983914553858
  covariance: [0.0, 0.0, 0.0, 0.0, 0.0, 0.0, 0.0, 0.0, 0.0, 0.0, 0.0, 0.0, 0.0, 0.0, 0.0, 0.0, 0.0, 0.0, 0.0, 0.0, 0.0, 0.0, 0.0, 0.0, 0.0, 0.0, 0.0, 0.0, 0.0, 0.0, 0.0, 0.0, 0.0, 0.0, 0.0, 0.0]
twist: 
  twist: 
    linear: 
      x: -0.0232508882833
      y: 0.0292646265246
      z: -0.0398110594513
    angular: 
      x: 0.0081254420802
      y: 0.0119637055323
      z: 0.623694002628
  covariance: [0.0, 0.0, 0.0, 0.0, 0.0, 0.0, 0.0, 0.0, 0.0, 0.0, 0.0, 0.0, 0.0, 0.0, 0.0, 0.0, 0.0, 0.0, 0.0, 0.0, 0.0, 0.0, 0.0, 0.0, 0.0, 0.0, 0.0, 0.0, 0.0, 0.0, 0.0, 0.0, 0.0, 0.0, 0.0, 0.0]
---
header: 
  seq: 569
  stamp: 
    secs: 24
    nsecs: 384000000
  frame_id: "map"
child_frame_id: "base_link"
pose: 
  pose: 
    position: 
      x: 0.0116392150521
      y: 0.0060550281778
      z: 8.0577249527
    orientation: 
      x: -0.00272542776995
      y: 0.000768623021306
      z: -0.186065186359
      w: -0.982533401632
  covariance: [0.0, 0.0, 0.0, 0.0, 0.0, 0.0, 0.0, 0.0, 0.0, 0.0, 0.0, 0.0, 0.0, 0.0, 0.0, 0.0, 0.0, 0.0, 0.0, 0.0, 0.0, 0.0, 0.0, 0.0, 0.0, 0.0, 0.0, 0.0, 0.0, 0.0, 0.0, 0.0, 0.0, 0.0, 0.0, 0.0]
twist: 
  twist: 
    linear: 
      x: -0.0228657758052
      y: 0.0290193684487
      z: -0.0402366208249
    angular: 
      x: 0.00666963122785
      y: 0.0120560508221
      z: 0.634554624557
  covariance: [0.0, 0.0, 0.0, 0.0, 0.0, 0.0, 0.0, 0.0, 0.0, 0.0, 0.0, 0.0, 0.0, 0.0, 0.0, 0.0, 0.0, 0.0, 0.0, 0.0, 0.0, 0.0, 0.0, 0.0, 0.0, 0.0, 0.0, 0.0, 0.0, 0.0, 0.0, 0.0, 0.0, 0.0, 0.0, 0.0]
---
header: 
  seq: 570
  stamp: 
    secs: 24
    nsecs: 416000000
  frame_id: "map"
child_frame_id: "base_link"
pose: 
  pose: 
    position: 
      x: 0.0103212539107
      y: 0.0065089315176
      z: 8.05712509155
    orientation: 
      x: -0.00282477530052
      y: 0.000590130294682
      z: -0.197386504218
      w: -0.980321535022
  covariance: [0.0, 0.0, 0.0, 0.0, 0.0, 0.0, 0.0, 0.0, 0.0, 0.0, 0.0, 0.0, 0.0, 0.0, 0.0, 0.0, 0.0, 0.0, 0.0, 0.0, 0.0, 0.0, 0.0, 0.0, 0.0, 0.0, 0.0, 0.0, 0.0, 0.0, 0.0, 0.0, 0.0, 0.0, 0.0, 0.0]
twist: 
  twist: 
    linear: 
      x: -0.0222313153071
      y: 0.0282970803602
      z: -0.0406119395193
    angular: 
      x: 0.0101289888844
      y: 0.00958987232298
      z: 0.645218551159
  covariance: [0.0, 0.0, 0.0, 0.0, 0.0, 0.0, 0.0, 0.0, 0.0, 0.0, 0.0, 0.0, 0.0, 0.0, 0.0, 0.0, 0.0, 0.0, 0.0, 0.0, 0.0, 0.0, 0.0, 0.0, 0.0, 0.0, 0.0, 0.0, 0.0, 0.0, 0.0, 0.0, 0.0, 0.0, 0.0, 0.0]
---
header: 
  seq: 571
  stamp: 
    secs: 24
    nsecs: 452000000
  frame_id: "map"
child_frame_id: "base_link"
pose: 
  pose: 
    position: 
      x: 0.00933163054287
      y: 0.00652982573956
      z: 8.05710983276
    orientation: 
      x: -0.00300204033555
      y: 0.000465928141932
      z: -0.210094664128
      w: -0.977676440957
  covariance: [0.0, 0.0, 0.0, 0.0, 0.0, 0.0, 0.0, 0.0, 0.0, 0.0, 0.0, 0.0, 0.0, 0.0, 0.0, 0.0, 0.0, 0.0, 0.0, 0.0, 0.0, 0.0, 0.0, 0.0, 0.0, 0.0, 0.0, 0.0, 0.0, 0.0, 0.0, 0.0, 0.0, 0.0, 0.0, 0.0]
twist: 
  twist: 
    linear: 
      x: -0.0214141254053
      y: 0.0275838031622
      z: -0.0403125644532
    angular: 
      x: 0.00957916397601
      y: 0.002403519582
      z: 0.651068866253
  covariance: [0.0, 0.0, 0.0, 0.0, 0.0, 0.0, 0.0, 0.0, 0.0, 0.0, 0.0, 0.0, 0.0, 0.0, 0.0, 0.0, 0.0, 0.0, 0.0, 0.0, 0.0, 0.0, 0.0, 0.0, 0.0, 0.0, 0.0, 0.0, 0.0, 0.0, 0.0, 0.0, 0.0, 0.0, 0.0, 0.0]
---
header: 
  seq: 572
  stamp: 
    secs: 24
    nsecs: 484000000
  frame_id: "map"
child_frame_id: "base_link"
pose: 
  pose: 
    position: 
      x: 0.00795641355217
      y: 0.00660908501595
      z: 8.05686092377
    orientation: 
      x: -0.00307606757064
      y: 0.000397736269721
      z: -0.216483241279
      w: -0.976281422418
  covariance: [0.0, 0.0, 0.0, 0.0, 0.0, 0.0, 0.0, 0.0, 0.0, 0.0, 0.0, 0.0, 0.0, 0.0, 0.0, 0.0, 0.0, 0.0, 0.0, 0.0, 0.0, 0.0, 0.0, 0.0, 0.0, 0.0, 0.0, 0.0, 0.0, 0.0, 0.0, 0.0, 0.0, 0.0, 0.0, 0.0]
twist: 
  twist: 
    linear: 
      x: -0.0212063937792
      y: 0.02548214427
      z: -0.0398962836809
    angular: 
      x: 0.00711669074371
      y: 0.00469351140782
      z: 0.654533326626
  covariance: [0.0, 0.0, 0.0, 0.0, 0.0, 0.0, 0.0, 0.0, 0.0, 0.0, 0.0, 0.0, 0.0, 0.0, 0.0, 0.0, 0.0, 0.0, 0.0, 0.0, 0.0, 0.0, 0.0, 0.0, 0.0, 0.0, 0.0, 0.0, 0.0, 0.0, 0.0, 0.0, 0.0, 0.0, 0.0, 0.0]
---
header: 
  seq: 573
  stamp: 
    secs: 24
    nsecs: 516000000
  frame_id: "map"
child_frame_id: "base_link"
pose: 
  pose: 
    position: 
      x: 0.00690365675837
      y: 0.00668911170214
      z: 8.05655288696
    orientation: 
      x: -0.00337303089021
      y: 0.000260146647986
      z: -0.231611431083
      w: -0.972802537248
  covariance: [0.0, 0.0, 0.0, 0.0, 0.0, 0.0, 0.0, 0.0, 0.0, 0.0, 0.0, 0.0, 0.0, 0.0, 0.0, 0.0, 0.0, 0.0, 0.0, 0.0, 0.0, 0.0, 0.0, 0.0, 0.0, 0.0, 0.0, 0.0, 0.0, 0.0, 0.0, 0.0, 0.0, 0.0, 0.0, 0.0]
twist: 
  twist: 
    linear: 
      x: -0.0202847028615
      y: 0.0247818811367
      z: -0.0399242093607
    angular: 
      x: 0.0135941030458
      y: 0.0059682871215
      z: 0.638554036617
  covariance: [0.0, 0.0, 0.0, 0.0, 0.0, 0.0, 0.0, 0.0, 0.0, 0.0, 0.0, 0.0, 0.0, 0.0, 0.0, 0.0, 0.0, 0.0, 0.0, 0.0, 0.0, 0.0, 0.0, 0.0, 0.0, 0.0, 0.0, 0.0, 0.0, 0.0, 0.0, 0.0, 0.0, 0.0, 0.0, 0.0]
---
header: 
  seq: 574
  stamp: 
    secs: 24
    nsecs: 552000000
  frame_id: "map"
child_frame_id: "base_link"
pose: 
  pose: 
    position: 
      x: 0.00598097220063
      y: 0.00671976990998
      z: 8.05633640289
    orientation: 
      x: -0.00364111958496
      y: 0.000177036520081
      z: -0.241404251335
      w: -0.970417784266
  covariance: [0.0, 0.0, 0.0, 0.0, 0.0, 0.0, 0.0, 0.0, 0.0, 0.0, 0.0, 0.0, 0.0, 0.0, 0.0, 0.0, 0.0, 0.0, 0.0, 0.0, 0.0, 0.0, 0.0, 0.0, 0.0, 0.0, 0.0, 0.0, 0.0, 0.0, 0.0, 0.0, 0.0, 0.0, 0.0, 0.0]
twist: 
  twist: 
    linear: 
      x: -0.0200255827302
      y: 0.0239858666124
      z: -0.040348400216
    angular: 
      x: 0.0167249850929
      y: -1.16797818918e-05
      z: 0.620423734188
  covariance: [0.0, 0.0, 0.0, 0.0, 0.0, 0.0, 0.0, 0.0, 0.0, 0.0, 0.0, 0.0, 0.0, 0.0, 0.0, 0.0, 0.0, 0.0, 0.0, 0.0, 0.0, 0.0, 0.0, 0.0, 0.0, 0.0, 0.0, 0.0, 0.0, 0.0, 0.0, 0.0, 0.0, 0.0, 0.0, 0.0]
---
header: 
  seq: 575
  stamp: 
    secs: 24
    nsecs: 584000000
  frame_id: "map"
child_frame_id: "base_link"
pose: 
  pose: 
    position: 
      x: 0.0047043976374
      y: 0.00679499004036
      z: 8.05583763123
    orientation: 
      x: -0.0037872479771
      y: 0.000151020060749
      z: -0.247373973105
      w: -0.968912678158
  covariance: [0.0, 0.0, 0.0, 0.0, 0.0, 0.0, 0.0, 0.0, 0.0, 0.0, 0.0, 0.0, 0.0, 0.0, 0.0, 0.0, 0.0, 0.0, 0.0, 0.0, 0.0, 0.0, 0.0, 0.0, 0.0, 0.0, 0.0, 0.0, 0.0, 0.0, 0.0, 0.0, 0.0, 0.0, 0.0, 0.0]
twist: 
  twist: 
    linear: 
      x: -0.0196509342728
      y: 0.0223477199982
      z: -0.0405955367465
    angular: 
      x: 0.0132455872372
      y: 0.00185915559996
      z: 0.610973834991
  covariance: [0.0, 0.0, 0.0, 0.0, 0.0, 0.0, 0.0, 0.0, 0.0, 0.0, 0.0, 0.0, 0.0, 0.0, 0.0, 0.0, 0.0, 0.0, 0.0, 0.0, 0.0, 0.0, 0.0, 0.0, 0.0, 0.0, 0.0, 0.0, 0.0, 0.0, 0.0, 0.0, 0.0, 0.0, 0.0, 0.0]
---
header: 
  seq: 576
  stamp: 
    secs: 24
    nsecs: 616000000
  frame_id: "map"
child_frame_id: "base_link"
pose: 
  pose: 
    position: 
      x: 0.00373476976529
      y: 0.00686343573034
      z: 8.05529880524
    orientation: 
      x: -0.00400959894478
      y: 0.000121292703114
      z: -0.258951501656
      w: -0.965882024722
  covariance: [0.0, 0.0, 0.0, 0.0, 0.0, 0.0, 0.0, 0.0, 0.0, 0.0, 0.0, 0.0, 0.0, 0.0, 0.0, 0.0, 0.0, 0.0, 0.0, 0.0, 0.0, 0.0, 0.0, 0.0, 0.0, 0.0, 0.0, 0.0, 0.0, 0.0, 0.0, 0.0, 0.0, 0.0, 0.0, 0.0]
twist: 
  twist: 
    linear: 
      x: -0.0190218776539
      y: 0.0212894175989
      z: -0.0411392095446
    angular: 
      x: 0.00918263290077
      y: 0.00231287511997
      z: 0.588714838028
  covariance: [0.0, 0.0, 0.0, 0.0, 0.0, 0.0, 0.0, 0.0, 0.0, 0.0, 0.0, 0.0, 0.0, 0.0, 0.0, 0.0, 0.0, 0.0, 0.0, 0.0, 0.0, 0.0, 0.0, 0.0, 0.0, 0.0, 0.0, 0.0, 0.0, 0.0, 0.0, 0.0, 0.0, 0.0, 0.0, 0.0]
---
header: 
  seq: 577
  stamp: 
    secs: 24
    nsecs: 652000000
  frame_id: "map"
child_frame_id: "base_link"
pose: 
  pose: 
    position: 
      x: 0.00255829840899
      y: 0.00691144447774
      z: 8.05471229553
    orientation: 
      x: -0.00417668337562
      y: 2.68216946296e-05
      z: -0.271048764071
      w: -0.962556617302
  covariance: [0.0, 0.0, 0.0, 0.0, 0.0, 0.0, 0.0, 0.0, 0.0, 0.0, 0.0, 0.0, 0.0, 0.0, 0.0, 0.0, 0.0, 0.0, 0.0, 0.0, 0.0, 0.0, 0.0, 0.0, 0.0, 0.0, 0.0, 0.0, 0.0, 0.0, 0.0, 0.0, 0.0, 0.0, 0.0, 0.0]
twist: 
  twist: 
    linear: 
      x: -0.018605034021
      y: 0.0196985213859
      z: -0.0415142033172
    angular: 
      x: 0.0090749906376
      y: 0.00420865556225
      z: 0.556039750576
  covariance: [0.0, 0.0, 0.0, 0.0, 0.0, 0.0, 0.0, 0.0, 0.0, 0.0, 0.0, 0.0, 0.0, 0.0, 0.0, 0.0, 0.0, 0.0, 0.0, 0.0, 0.0, 0.0, 0.0, 0.0, 0.0, 0.0, 0.0, 0.0, 0.0, 0.0, 0.0, 0.0, 0.0, 0.0, 0.0, 0.0]
---
header: 
  seq: 578
  stamp: 
    secs: 24
    nsecs: 684000000
  frame_id: "map"
child_frame_id: "base_link"
pose: 
  pose: 
    position: 
      x: 0.00175637879875
      y: 0.00691090803593
      z: 8.05435943604
    orientation: 
      x: -0.00423562903599
      y: 1.47168233929e-06
      z: -0.275256747573
      w: -0.961361459118
  covariance: [0.0, 0.0, 0.0, 0.0, 0.0, 0.0, 0.0, 0.0, 0.0, 0.0, 0.0, 0.0, 0.0, 0.0, 0.0, 0.0, 0.0, 0.0, 0.0, 0.0, 0.0, 0.0, 0.0, 0.0, 0.0, 0.0, 0.0, 0.0, 0.0, 0.0, 0.0, 0.0, 0.0, 0.0, 0.0, 0.0]
twist: 
  twist: 
    linear: 
      x: -0.0189233646589
      y: 0.018225615541
      z: -0.0414250432846
    angular: 
      x: 0.0088050942868
      y: 0.00435040332377
      z: 0.538794398308
  covariance: [0.0, 0.0, 0.0, 0.0, 0.0, 0.0, 0.0, 0.0, 0.0, 0.0, 0.0, 0.0, 0.0, 0.0, 0.0, 0.0, 0.0, 0.0, 0.0, 0.0, 0.0, 0.0, 0.0, 0.0, 0.0, 0.0, 0.0, 0.0, 0.0, 0.0, 0.0, 0.0, 0.0, 0.0, 0.0, 0.0]
---
header: 
  seq: 579
  stamp: 
    secs: 24
    nsecs: 716000000
  frame_id: "map"
child_frame_id: "base_link"
pose: 
  pose: 
    position: 
      x: 0.000867994327564
      y: 0.00691130990162
      z: 8.05375003815
    orientation: 
      x: -0.00430983975805
      y: -5.30571200107e-05
      z: -0.285324196689
      w: -0.95842137926
  covariance: [0.0, 0.0, 0.0, 0.0, 0.0, 0.0, 0.0, 0.0, 0.0, 0.0, 0.0, 0.0, 0.0, 0.0, 0.0, 0.0, 0.0, 0.0, 0.0, 0.0, 0.0, 0.0, 0.0, 0.0, 0.0, 0.0, 0.0, 0.0, 0.0, 0.0, 0.0, 0.0, 0.0, 0.0, 0.0, 0.0]
twist: 
  twist: 
    linear: 
      x: -0.0188056630875
      y: 0.0169046249206
      z: -0.0417827265698
    angular: 
      x: 0.00101200700738
      y: 0.00291196396574
      z: 0.507896780968
  covariance: [0.0, 0.0, 0.0, 0.0, 0.0, 0.0, 0.0, 0.0, 0.0, 0.0, 0.0, 0.0, 0.0, 0.0, 0.0, 0.0, 0.0, 0.0, 0.0, 0.0, 0.0, 0.0, 0.0, 0.0, 0.0, 0.0, 0.0, 0.0, 0.0, 0.0, 0.0, 0.0, 0.0, 0.0, 0.0, 0.0]
---
header: 
  seq: 580
  stamp: 
    secs: 24
    nsecs: 752000000
  frame_id: "map"
child_frame_id: "base_link"
pose: 
  pose: 
    position: 
      x: 0.000111110275611
      y: 0.00686231162399
      z: 8.05337810516
    orientation: 
      x: -0.00428462606447
      y: -0.000109313613877
      z: -0.294717759845
      w: -0.955574738965
  covariance: [0.0, 0.0, 0.0, 0.0, 0.0, 0.0, 0.0, 0.0, 0.0, 0.0, 0.0, 0.0, 0.0, 0.0, 0.0, 0.0, 0.0, 0.0, 0.0, 0.0, 0.0, 0.0, 0.0, 0.0, 0.0, 0.0, 0.0, 0.0, 0.0, 0.0, 0.0, 0.0, 0.0, 0.0, 0.0, 0.0]
twist: 
  twist: 
    linear: 
      x: -0.018430780793
      y: 0.0156819793808
      z: -0.0421340727646
    angular: 
      x: -0.00317455967888
      y: 0.00330451619811
      z: 0.471071958542
  covariance: [0.0, 0.0, 0.0, 0.0, 0.0, 0.0, 0.0, 0.0, 0.0, 0.0, 0.0, 0.0, 0.0, 0.0, 0.0, 0.0, 0.0, 0.0, 0.0, 0.0, 0.0, 0.0, 0.0, 0.0, 0.0, 0.0, 0.0, 0.0, 0.0, 0.0, 0.0, 0.0, 0.0, 0.0, 0.0, 0.0]
---
header: 
  seq: 581
  stamp: 
    secs: 24
    nsecs: 784000000
  frame_id: "map"
child_frame_id: "base_link"
pose: 
  pose: 
    position: 
      x: -0.000919604557566
      y: 0.00677420245484
      z: 8.05262756348
    orientation: 
      x: -0.00424064829759
      y: -0.00014372635105
      z: -0.299141514138
      w: -0.954199381931
  covariance: [0.0, 0.0, 0.0, 0.0, 0.0, 0.0, 0.0, 0.0, 0.0, 0.0, 0.0, 0.0, 0.0, 0.0, 0.0, 0.0, 0.0, 0.0, 0.0, 0.0, 0.0, 0.0, 0.0, 0.0, 0.0, 0.0, 0.0, 0.0, 0.0, 0.0, 0.0, 0.0, 0.0, 0.0, 0.0, 0.0]
twist: 
  twist: 
    linear: 
      x: -0.0182556681501
      y: 0.0136636731418
      z: -0.0416968524521
    angular: 
      x: -0.00124411447905
      y: 0.00944415386766
      z: 0.454755395651
  covariance: [0.0, 0.0, 0.0, 0.0, 0.0, 0.0, 0.0, 0.0, 0.0, 0.0, 0.0, 0.0, 0.0, 0.0, 0.0, 0.0, 0.0, 0.0, 0.0, 0.0, 0.0, 0.0, 0.0, 0.0, 0.0, 0.0, 0.0, 0.0, 0.0, 0.0, 0.0, 0.0, 0.0, 0.0, 0.0, 0.0]
---
header: 
  seq: 582
  stamp: 
    secs: 24
    nsecs: 816000000
  frame_id: "map"
child_frame_id: "base_link"
pose: 
  pose: 
    position: 
      x: -0.0015761104878
      y: 0.006619497668
      z: 8.05208206177
    orientation: 
      x: -0.00415428479518
      y: -0.000255633477836
      z: -0.307439427819
      w: -0.95155850255
  covariance: [0.0, 0.0, 0.0, 0.0, 0.0, 0.0, 0.0, 0.0, 0.0, 0.0, 0.0, 0.0, 0.0, 0.0, 0.0, 0.0, 0.0, 0.0, 0.0, 0.0, 0.0, 0.0, 0.0, 0.0, 0.0, 0.0, 0.0, 0.0, 0.0, 0.0, 0.0, 0.0, 0.0, 0.0, 0.0, 0.0]
twist: 
  twist: 
    linear: 
      x: -0.0182632096596
      y: 0.011967192022
      z: -0.0416341425948
    angular: 
      x: -0.00279635097831
      y: 0.00648661283776
      z: 0.419437587261
  covariance: [0.0, 0.0, 0.0, 0.0, 0.0, 0.0, 0.0, 0.0, 0.0, 0.0, 0.0, 0.0, 0.0, 0.0, 0.0, 0.0, 0.0, 0.0, 0.0, 0.0, 0.0, 0.0, 0.0, 0.0, 0.0, 0.0, 0.0, 0.0, 0.0, 0.0, 0.0, 0.0, 0.0, 0.0, 0.0, 0.0]
---
header: 
  seq: 583
  stamp: 
    secs: 24
    nsecs: 852000000
  frame_id: "map"
child_frame_id: "base_link"
pose: 
  pose: 
    position: 
      x: -0.00190571392886
      y: 0.00634166784585
      z: 8.05178260803
    orientation: 
      x: -0.00408333469161
      y: -0.000324955000833
      z: -0.314980510542
      w: -0.949089371577
  covariance: [0.0, 0.0, 0.0, 0.0, 0.0, 0.0, 0.0, 0.0, 0.0, 0.0, 0.0, 0.0, 0.0, 0.0, 0.0, 0.0, 0.0, 0.0, 0.0, 0.0, 0.0, 0.0, 0.0, 0.0, 0.0, 0.0, 0.0, 0.0, 0.0, 0.0, 0.0, 0.0, 0.0, 0.0, 0.0, 0.0]
twist: 
  twist: 
    linear: 
      x: -0.0177569724563
      y: 0.0106656420062
      z: -0.041731905005
    angular: 
      x: -0.00327360676602
      y: 0.00326415919699
      z: 0.378256648779
  covariance: [0.0, 0.0, 0.0, 0.0, 0.0, 0.0, 0.0, 0.0, 0.0, 0.0, 0.0, 0.0, 0.0, 0.0, 0.0, 0.0, 0.0, 0.0, 0.0, 0.0, 0.0, 0.0, 0.0, 0.0, 0.0, 0.0, 0.0, 0.0, 0.0, 0.0, 0.0, 0.0, 0.0, 0.0, 0.0, 0.0]
---
header: 
  seq: 584
  stamp: 
    secs: 24
    nsecs: 884000000
  frame_id: "map"
child_frame_id: "base_link"
pose: 
  pose: 
    position: 
      x: -0.00239540380426
      y: 0.00595352891833
      z: 8.05100536346
    orientation: 
      x: -0.00404378003892
      y: -0.000352531387469
      z: -0.318421400328
      w: -0.947940596
  covariance: [0.0, 0.0, 0.0, 0.0, 0.0, 0.0, 0.0, 0.0, 0.0, 0.0, 0.0, 0.0, 0.0, 0.0, 0.0, 0.0, 0.0, 0.0, 0.0, 0.0, 0.0, 0.0, 0.0, 0.0, 0.0, 0.0, 0.0, 0.0, 0.0, 0.0, 0.0, 0.0, 0.0, 0.0, 0.0, 0.0]
twist: 
  twist: 
    linear: 
      x: -0.0175538661466
      y: 0.00830132383586
      z: -0.0413352151955
    angular: 
      x: -0.00461719604209
      y: 0.00709301419556
      z: 0.350985527039
  covariance: [0.0, 0.0, 0.0, 0.0, 0.0, 0.0, 0.0, 0.0, 0.0, 0.0, 0.0, 0.0, 0.0, 0.0, 0.0, 0.0, 0.0, 0.0, 0.0, 0.0, 0.0, 0.0, 0.0, 0.0, 0.0, 0.0, 0.0, 0.0, 0.0, 0.0, 0.0, 0.0, 0.0, 0.0, 0.0, 0.0]
---
header: 
  seq: 585
  stamp: 
    secs: 24
    nsecs: 916000000
  frame_id: "map"
child_frame_id: "base_link"
pose: 
  pose: 
    position: 
      x: -0.00277605932206
      y: 0.00563828228042
      z: 8.05023574829
    orientation: 
      x: -0.00387970054667
      y: -0.000399878926595
      z: -0.325284108451
      w: -0.945608336918
  covariance: [0.0, 0.0, 0.0, 0.0, 0.0, 0.0, 0.0, 0.0, 0.0, 0.0, 0.0, 0.0, 0.0, 0.0, 0.0, 0.0, 0.0, 0.0, 0.0, 0.0, 0.0, 0.0, 0.0, 0.0, 0.0, 0.0, 0.0, 0.0, 0.0, 0.0, 0.0, 0.0, 0.0, 0.0, 0.0, 0.0]
twist: 
  twist: 
    linear: 
      x: -0.0171539636794
      y: 0.00708474893632
      z: -0.0410953592907
    angular: 
      x: -0.00532796373591
      y: 0.00537784444168
      z: 0.311053931713
  covariance: [0.0, 0.0, 0.0, 0.0, 0.0, 0.0, 0.0, 0.0, 0.0, 0.0, 0.0, 0.0, 0.0, 0.0, 0.0, 0.0, 0.0, 0.0, 0.0, 0.0, 0.0, 0.0, 0.0, 0.0, 0.0, 0.0, 0.0, 0.0, 0.0, 0.0, 0.0, 0.0, 0.0, 0.0, 0.0, 0.0]
---
header: 
  seq: 586
  stamp: 
    secs: 24
    nsecs: 952000000
  frame_id: "map"
child_frame_id: "base_link"
pose: 
  pose: 
    position: 
      x: -0.00306754210033
      y: 0.00532856630161
      z: 8.04947471619
    orientation: 
      x: -0.00372982750582
      y: -0.000420490546515
      z: -0.330164481701
      w: -0.943916035583
  covariance: [0.0, 0.0, 0.0, 0.0, 0.0, 0.0, 0.0, 0.0, 0.0, 0.0, 0.0, 0.0, 0.0, 0.0, 0.0, 0.0, 0.0, 0.0, 0.0, 0.0, 0.0, 0.0, 0.0, 0.0, 0.0, 0.0, 0.0, 0.0, 0.0, 0.0, 0.0, 0.0, 0.0, 0.0, 0.0, 0.0]
twist: 
  twist: 
    linear: 
      x: -0.0172472659411
      y: 0.00573726422572
      z: -0.0409249581416
    angular: 
      x: -0.00915204640478
      y: 0.00220384565182
      z: 0.270677119493
  covariance: [0.0, 0.0, 0.0, 0.0, 0.0, 0.0, 0.0, 0.0, 0.0, 0.0, 0.0, 0.0, 0.0, 0.0, 0.0, 0.0, 0.0, 0.0, 0.0, 0.0, 0.0, 0.0, 0.0, 0.0, 0.0, 0.0, 0.0, 0.0, 0.0, 0.0, 0.0, 0.0, 0.0, 0.0, 0.0, 0.0]
---
header: 
  seq: 587
  stamp: 
    secs: 24
    nsecs: 984000000
  frame_id: "map"
child_frame_id: "base_link"
pose: 
  pose: 
    position: 
      x: -0.0034882100299
      y: 0.00487205060199
      z: 8.04822349548
    orientation: 
      x: -0.00360410740798
      y: -0.000426832659399
      z: -0.333027812148
      w: -0.942910032456
  covariance: [0.0, 0.0, 0.0, 0.0, 0.0, 0.0, 0.0, 0.0, 0.0, 0.0, 0.0, 0.0, 0.0, 0.0, 0.0, 0.0, 0.0, 0.0, 0.0, 0.0, 0.0, 0.0, 0.0, 0.0, 0.0, 0.0, 0.0, 0.0, 0.0, 0.0, 0.0, 0.0, 0.0, 0.0, 0.0, 0.0]
twist: 
  twist: 
    linear: 
      x: -0.017502762021
      y: 0.00393013421815
      z: -0.0402593438228
    angular: 
      x: -0.00911618117243
      y: 0.00671711284667
      z: 0.241429671645
  covariance: [0.0, 0.0, 0.0, 0.0, 0.0, 0.0, 0.0, 0.0, 0.0, 0.0, 0.0, 0.0, 0.0, 0.0, 0.0, 0.0, 0.0, 0.0, 0.0, 0.0, 0.0, 0.0, 0.0, 0.0, 0.0, 0.0, 0.0, 0.0, 0.0, 0.0, 0.0, 0.0, 0.0, 0.0, 0.0, 0.0]
---
header: 
  seq: 588
  stamp: 
    secs: 25
    nsecs:  16000000
  frame_id: "map"
child_frame_id: "base_link"
pose: 
  pose: 
    position: 
      x: -0.00381782231852
      y: 0.00448756478727
      z: 8.04735469818
    orientation: 
      x: -0.00341900552867
      y: -0.000470401799411
      z: -0.336808595194
      w: -0.94156685454
  covariance: [0.0, 0.0, 0.0, 0.0, 0.0, 0.0, 0.0, 0.0, 0.0, 0.0, 0.0, 0.0, 0.0, 0.0, 0.0, 0.0, 0.0, 0.0, 0.0, 0.0, 0.0, 0.0, 0.0, 0.0, 0.0, 0.0, 0.0, 0.0, 0.0, 0.0, 0.0, 0.0, 0.0, 0.0, 0.0, 0.0]
twist: 
  twist: 
    linear: 
      x: -0.0173738840578
      y: 0.00267082231926
      z: -0.0392067882031
    angular: 
      x: -0.0064844773151
      y: 0.00714973406866
      z: 0.208818688989
  covariance: [0.0, 0.0, 0.0, 0.0, 0.0, 0.0, 0.0, 0.0, 0.0, 0.0, 0.0, 0.0, 0.0, 0.0, 0.0, 0.0, 0.0, 0.0, 0.0, 0.0, 0.0, 0.0, 0.0, 0.0, 0.0, 0.0, 0.0, 0.0, 0.0, 0.0, 0.0, 0.0, 0.0, 0.0, 0.0, 0.0]
---
header: 
  seq: 589
  stamp: 
    secs: 25
    nsecs:  52000000
  frame_id: "map"
child_frame_id: "base_link"
pose: 
  pose: 
    position: 
      x: -0.00407090922818
      y: 0.00412343023345
      z: 8.04669189453
    orientation: 
      x: -0.0031740857468
      y: -0.000444532689412
      z: -0.340229949915
      w: -0.94033688306
  covariance: [0.0, 0.0, 0.0, 0.0, 0.0, 0.0, 0.0, 0.0, 0.0, 0.0, 0.0, 0.0, 0.0, 0.0, 0.0, 0.0, 0.0, 0.0, 0.0, 0.0, 0.0, 0.0, 0.0, 0.0, 0.0, 0.0, 0.0, 0.0, 0.0, 0.0, 0.0, 0.0, 0.0, 0.0, 0.0, 0.0]
twist: 
  twist: 
    linear: 
      x: -0.0170877113818
      y: 0.00175677482948
      z: -0.0388615606493
    angular: 
      x: -0.0132575472817
      y: 0.00289047323167
      z: 0.162276953459
  covariance: [0.0, 0.0, 0.0, 0.0, 0.0, 0.0, 0.0, 0.0, 0.0, 0.0, 0.0, 0.0, 0.0, 0.0, 0.0, 0.0, 0.0, 0.0, 0.0, 0.0, 0.0, 0.0, 0.0, 0.0, 0.0, 0.0, 0.0, 0.0, 0.0, 0.0, 0.0, 0.0, 0.0, 0.0, 0.0, 0.0]
---
header: 
  seq: 590
  stamp: 
    secs: 25
    nsecs:  84000000
  frame_id: "map"
child_frame_id: "base_link"
pose: 
  pose: 
    position: 
      x: -0.0044372822158
      y: 0.00361634045839
      z: 8.04569911957
    orientation: 
      x: -0.00304816882647
      y: -0.000439925758988
      z: -0.341662205195
      w: -0.939817781401
  covariance: [0.0, 0.0, 0.0, 0.0, 0.0, 0.0, 0.0, 0.0, 0.0, 0.0, 0.0, 0.0, 0.0, 0.0, 0.0, 0.0, 0.0, 0.0, 0.0, 0.0, 0.0, 0.0, 0.0, 0.0, 0.0, 0.0, 0.0, 0.0, 0.0, 0.0, 0.0, 0.0, 0.0, 0.0, 0.0, 0.0]
twist: 
  twist: 
    linear: 
      x: -0.0163397632075
      y: 0.000367807536819
      z: -0.0378593398985
    angular: 
      x: -0.012280232273
      y: 0.00406293896958
      z: 0.14465649426
  covariance: [0.0, 0.0, 0.0, 0.0, 0.0, 0.0, 0.0, 0.0, 0.0, 0.0, 0.0, 0.0, 0.0, 0.0, 0.0, 0.0, 0.0, 0.0, 0.0, 0.0, 0.0, 0.0, 0.0, 0.0, 0.0, 0.0, 0.0, 0.0, 0.0, 0.0, 0.0, 0.0, 0.0, 0.0, 0.0, 0.0]
---
header: 
  seq: 591
  stamp: 
    secs: 25
    nsecs: 116000000
  frame_id: "map"
child_frame_id: "base_link"
pose: 
  pose: 
    position: 
      x: -0.00474771345034
      y: 0.00322106597014
      z: 8.04495716095
    orientation: 
      x: -0.00275821727723
      y: -0.000453263919453
      z: -0.343957944033
      w: -0.93898099787
  covariance: [0.0, 0.0, 0.0, 0.0, 0.0, 0.0, 0.0, 0.0, 0.0, 0.0, 0.0, 0.0, 0.0, 0.0, 0.0, 0.0, 0.0, 0.0, 0.0, 0.0, 0.0, 0.0, 0.0, 0.0, 0.0, 0.0, 0.0, 0.0, 0.0, 0.0, 0.0, 0.0, 0.0, 0.0, 0.0, 0.0]
twist: 
  twist: 
    linear: 
      x: -0.0167185572238
      y: -0.00044321782007
      z: -0.0372769153392
    angular: 
      x: -0.0109346294776
      y: 0.00697757396847
      z: 0.0993051603436
  covariance: [0.0, 0.0, 0.0, 0.0, 0.0, 0.0, 0.0, 0.0, 0.0, 0.0, 0.0, 0.0, 0.0, 0.0, 0.0, 0.0, 0.0, 0.0, 0.0, 0.0, 0.0, 0.0, 0.0, 0.0, 0.0, 0.0, 0.0, 0.0, 0.0, 0.0, 0.0, 0.0, 0.0, 0.0, 0.0, 0.0]
---
header: 
  seq: 592
  stamp: 
    secs: 25
    nsecs: 152000000
  frame_id: "map"
child_frame_id: "base_link"
pose: 
  pose: 
    position: 
      x: -0.00499361520633
      y: 0.00285045034252
      z: 8.04432106018
    orientation: 
      x: -0.00253082432817
      y: -0.000439220293184
      z: -0.345511792971
      w: -0.938410940671
  covariance: [0.0, 0.0, 0.0, 0.0, 0.0, 0.0, 0.0, 0.0, 0.0, 0.0, 0.0, 0.0, 0.0, 0.0, 0.0, 0.0, 0.0, 0.0, 0.0, 0.0, 0.0, 0.0, 0.0, 0.0, 0.0, 0.0, 0.0, 0.0, 0.0, 0.0, 0.0, 0.0, 0.0, 0.0, 0.0, 0.0]
twist: 
  twist: 
    linear: 
      x: -0.0165069470247
      y: -0.00080954717105
      z: -0.036845817256
    angular: 
      x: -0.0098241623491
      y: 0.00120352441445
      z: 0.066570147872
  covariance: [0.0, 0.0, 0.0, 0.0, 0.0, 0.0, 0.0, 0.0, 0.0, 0.0, 0.0, 0.0, 0.0, 0.0, 0.0, 0.0, 0.0, 0.0, 0.0, 0.0, 0.0, 0.0, 0.0, 0.0, 0.0, 0.0, 0.0, 0.0, 0.0, 0.0, 0.0, 0.0, 0.0, 0.0, 0.0, 0.0]
---
header: 
  seq: 593
  stamp: 
    secs: 25
    nsecs: 184000000
  frame_id: "map"
child_frame_id: "base_link"
pose: 
  pose: 
    position: 
      x: -0.00534312380478
      y: 0.00233236327767
      z: 8.04371070862
    orientation: 
      x: -0.0024383580938
      y: -0.000406841964632
      z: -0.346018735265
      w: -0.938224398719
  covariance: [0.0, 0.0, 0.0, 0.0, 0.0, 0.0, 0.0, 0.0, 0.0, 0.0, 0.0, 0.0, 0.0, 0.0, 0.0, 0.0, 0.0, 0.0, 0.0, 0.0, 0.0, 0.0, 0.0, 0.0, 0.0, 0.0, 0.0, 0.0, 0.0, 0.0, 0.0, 0.0, 0.0, 0.0, 0.0, 0.0]
twist: 
  twist: 
    linear: 
      x: -0.0162786699392
      y: -0.00176745575099
      z: -0.0350207901094
    angular: 
      x: -0.0107199642807
      y: 0.000932514958549
      z: 0.0481932647526
  covariance: [0.0, 0.0, 0.0, 0.0, 0.0, 0.0, 0.0, 0.0, 0.0, 0.0, 0.0, 0.0, 0.0, 0.0, 0.0, 0.0, 0.0, 0.0, 0.0, 0.0, 0.0, 0.0, 0.0, 0.0, 0.0, 0.0, 0.0, 0.0, 0.0, 0.0, 0.0, 0.0, 0.0, 0.0, 0.0, 0.0]
---
header: 
  seq: 594
  stamp: 
    secs: 25
    nsecs: 216000000
  frame_id: "map"
child_frame_id: "base_link"
pose: 
  pose: 
    position: 
      x: -0.00530046503991
      y: 0.00176101946272
      z: 8.04343128204
    orientation: 
      x: -0.00220675153002
      y: -0.000376548834947
      z: -0.346610392724
      w: -0.938006583806
  covariance: [0.0, 0.0, 0.0, 0.0, 0.0, 0.0, 0.0, 0.0, 0.0, 0.0, 0.0, 0.0, 0.0, 0.0, 0.0, 0.0, 0.0, 0.0, 0.0, 0.0, 0.0, 0.0, 0.0, 0.0, 0.0, 0.0, 0.0, 0.0, 0.0, 0.0, 0.0, 0.0, 0.0, 0.0, 0.0, 0.0]
twist: 
  twist: 
    linear: 
      x: -0.0165673028718
      y: -0.00239787091351
      z: -0.0342545313304
    angular: 
      x: -0.0120683191344
      y: 0.00288457120769
      z: 0.0133366556838
  covariance: [0.0, 0.0, 0.0, 0.0, 0.0, 0.0, 0.0, 0.0, 0.0, 0.0, 0.0, 0.0, 0.0, 0.0, 0.0, 0.0, 0.0, 0.0, 0.0, 0.0, 0.0, 0.0, 0.0, 0.0, 0.0, 0.0, 0.0, 0.0, 0.0, 0.0, 0.0, 0.0, 0.0, 0.0, 0.0, 0.0]
---
header: 
  seq: 595
  stamp: 
    secs: 25
    nsecs: 252000000
  frame_id: "map"
child_frame_id: "base_link"
pose: 
  pose: 
    position: 
      x: -0.0045691379346
      y: 0.000961083336733
      z: 8.04358100891
    orientation: 
      x: -0.00194927799651
      y: -0.000334169602543
      z: -0.346619665031
      w: -0.938003633527
  covariance: [0.0, 0.0, 0.0, 0.0, 0.0, 0.0, 0.0, 0.0, 0.0, 0.0, 0.0, 0.0, 0.0, 0.0, 0.0, 0.0, 0.0, 0.0, 0.0, 0.0, 0.0, 0.0, 0.0, 0.0, 0.0, 0.0, 0.0, 0.0, 0.0, 0.0, 0.0, 0.0, 0.0, 0.0, 0.0, 0.0]
twist: 
  twist: 
    linear: 
      x: -0.0159245391757
      y: -0.00352089997466
      z: -0.0335250480993
    angular: 
      x: -0.0144585268572
      y: 0.000785179785453
      z: -0.0106911575422
  covariance: [0.0, 0.0, 0.0, 0.0, 0.0, 0.0, 0.0, 0.0, 0.0, 0.0, 0.0, 0.0, 0.0, 0.0, 0.0, 0.0, 0.0, 0.0, 0.0, 0.0, 0.0, 0.0, 0.0, 0.0, 0.0, 0.0, 0.0, 0.0, 0.0, 0.0, 0.0, 0.0, 0.0, 0.0, 0.0, 0.0]
---
header: 
  seq: 596
  stamp: 
    secs: 25
    nsecs: 284000000
  frame_id: "map"
child_frame_id: "base_link"
pose: 
  pose: 
    position: 
      x: -0.00371272000484
      y: -9.22650360735e-05
      z: 8.04353237152
    orientation: 
      x: -0.00182490223497
      y: -0.000324798431876
      z: -0.346431057884
      w: -0.938073555148
  covariance: [0.0, 0.0, 0.0, 0.0, 0.0, 0.0, 0.0, 0.0, 0.0, 0.0, 0.0, 0.0, 0.0, 0.0, 0.0, 0.0, 0.0, 0.0, 0.0, 0.0, 0.0, 0.0, 0.0, 0.0, 0.0, 0.0, 0.0, 0.0, 0.0, 0.0, 0.0, 0.0, 0.0, 0.0, 0.0, 0.0]
twist: 
  twist: 
    linear: 
      x: -0.0151522520414
      y: -0.00460770428749
      z: -0.0329838187133
    angular: 
      x: -0.015025254339
      y: 0.00242122565396
      z: -0.0275774598122
  covariance: [0.0, 0.0, 0.0, 0.0, 0.0, 0.0, 0.0, 0.0, 0.0, 0.0, 0.0, 0.0, 0.0, 0.0, 0.0, 0.0, 0.0, 0.0, 0.0, 0.0, 0.0, 0.0, 0.0, 0.0, 0.0, 0.0, 0.0, 0.0, 0.0, 0.0, 0.0, 0.0, 0.0, 0.0, 0.0, 0.0]
---
header: 
  seq: 597
  stamp: 
    secs: 25
    nsecs: 316000000
  frame_id: "map"
child_frame_id: "base_link"
pose: 
  pose: 
    position: 
      x: -0.0031370180659
      y: -0.000864665140398
      z: 8.04355049133
    orientation: 
      x: -0.00162184176461
      y: -0.000314228380933
      z: -0.345666303317
      w: -0.938356065474
  covariance: [0.0, 0.0, 0.0, 0.0, 0.0, 0.0, 0.0, 0.0, 0.0, 0.0, 0.0, 0.0, 0.0, 0.0, 0.0, 0.0, 0.0, 0.0, 0.0, 0.0, 0.0, 0.0, 0.0, 0.0, 0.0, 0.0, 0.0, 0.0, 0.0, 0.0, 0.0, 0.0, 0.0, 0.0, 0.0, 0.0]
twist: 
  twist: 
    linear: 
      x: -0.01425120655
      y: -0.00476081070998
      z: -0.0333242866343
    angular: 
      x: -0.00913850869983
      y: 0.00234916433692
      z: -0.0496158115566
  covariance: [0.0, 0.0, 0.0, 0.0, 0.0, 0.0, 0.0, 0.0, 0.0, 0.0, 0.0, 0.0, 0.0, 0.0, 0.0, 0.0, 0.0, 0.0, 0.0, 0.0, 0.0, 0.0, 0.0, 0.0, 0.0, 0.0, 0.0, 0.0, 0.0, 0.0, 0.0, 0.0, 0.0, 0.0, 0.0, 0.0]
---
header: 
  seq: 598
  stamp: 
    secs: 25
    nsecs: 352000000
  frame_id: "map"
child_frame_id: "base_link"
pose: 
  pose: 
    position: 
      x: -0.00259071658365
      y: -0.00154579628725
      z: 8.04358577728
    orientation: 
      x: -0.00134059909606
      y: -0.000243870185404
      z: -0.344267639076
      w: -0.938870657421
  covariance: [0.0, 0.0, 0.0, 0.0, 0.0, 0.0, 0.0, 0.0, 0.0, 0.0, 0.0, 0.0, 0.0, 0.0, 0.0, 0.0, 0.0, 0.0, 0.0, 0.0, 0.0, 0.0, 0.0, 0.0, 0.0, 0.0, 0.0, 0.0, 0.0, 0.0, 0.0, 0.0, 0.0, 0.0, 0.0, 0.0]
twist: 
  twist: 
    linear: 
      x: -0.0140029935286
      y: -0.00506758151896
      z: -0.0335624305812
    angular: 
      x: -0.0138730872422
      y: 0.0012652373407
      z: -0.0825587883592
  covariance: [0.0, 0.0, 0.0, 0.0, 0.0, 0.0, 0.0, 0.0, 0.0, 0.0, 0.0, 0.0, 0.0, 0.0, 0.0, 0.0, 0.0, 0.0, 0.0, 0.0, 0.0, 0.0, 0.0, 0.0, 0.0, 0.0, 0.0, 0.0, 0.0, 0.0, 0.0, 0.0, 0.0, 0.0, 0.0, 0.0]
---
header: 
  seq: 599
  stamp: 
    secs: 25
    nsecs: 384000000
  frame_id: "map"
child_frame_id: "base_link"
pose: 
  pose: 
    position: 
      x: -0.00197755894624
      y: -0.00244464515708
      z: 8.0435962677
    orientation: 
      x: -0.00123785108861
      y: -0.000208819730193
      z: -0.343612529536
      w: -0.939110704797
  covariance: [0.0, 0.0, 0.0, 0.0, 0.0, 0.0, 0.0, 0.0, 0.0, 0.0, 0.0, 0.0, 0.0, 0.0, 0.0, 0.0, 0.0, 0.0, 0.0, 0.0, 0.0, 0.0, 0.0, 0.0, 0.0, 0.0, 0.0, 0.0, 0.0, 0.0, 0.0, 0.0, 0.0, 0.0, 0.0, 0.0]
twist: 
  twist: 
    linear: 
      x: -0.0141721121572
      y: -0.00524275304776
      z: -0.0337384954399
    angular: 
      x: -0.0128260673955
      y: -0.00308164511807
      z: -0.0911368057132
  covariance: [0.0, 0.0, 0.0, 0.0, 0.0, 0.0, 0.0, 0.0, 0.0, 0.0, 0.0, 0.0, 0.0, 0.0, 0.0, 0.0, 0.0, 0.0, 0.0, 0.0, 0.0, 0.0, 0.0, 0.0, 0.0, 0.0, 0.0, 0.0, 0.0, 0.0, 0.0, 0.0, 0.0, 0.0, 0.0, 0.0]
---
header: 
  seq: 600
  stamp: 
    secs: 25
    nsecs: 416000000
  frame_id: "map"
child_frame_id: "base_link"
pose: 
  pose: 
    position: 
      x: -0.00158352323342
      y: -0.00311867846176
      z: 8.04345035553
    orientation: 
      x: -0.0010416598137
      y: -0.000108830530322
      z: -0.341662141975
      w: -0.939822396481
  covariance: [0.0, 0.0, 0.0, 0.0, 0.0, 0.0, 0.0, 0.0, 0.0, 0.0, 0.0, 0.0, 0.0, 0.0, 0.0, 0.0, 0.0, 0.0, 0.0, 0.0, 0.0, 0.0, 0.0, 0.0, 0.0, 0.0, 0.0, 0.0, 0.0, 0.0, 0.0, 0.0, 0.0, 0.0, 0.0, 0.0]
twist: 
  twist: 
    linear: 
      x: -0.01366823473
      y: -0.00566595441818
      z: -0.0339471806374
    angular: 
      x: -0.0134393395856
      y: -0.00386701035313
      z: -0.114048428833
  covariance: [0.0, 0.0, 0.0, 0.0, 0.0, 0.0, 0.0, 0.0, 0.0, 0.0, 0.0, 0.0, 0.0, 0.0, 0.0, 0.0, 0.0, 0.0, 0.0, 0.0, 0.0, 0.0, 0.0, 0.0, 0.0, 0.0, 0.0, 0.0, 0.0, 0.0, 0.0, 0.0, 0.0, 0.0, 0.0, 0.0]
---
header: 
  seq: 601
  stamp: 
    secs: 25
    nsecs: 452000000
  frame_id: "map"
child_frame_id: "base_link"
pose: 
  pose: 
    position: 
      x: -0.00118391553406
      y: -0.00371915427968
      z: 8.04335784912
    orientation: 
      x: -0.000859560609233
      y: 3.62767474029e-05
      z: -0.339228498648
      w: -0.940703602789
  covariance: [0.0, 0.0, 0.0, 0.0, 0.0, 0.0, 0.0, 0.0, 0.0, 0.0, 0.0, 0.0, 0.0, 0.0, 0.0, 0.0, 0.0, 0.0, 0.0, 0.0, 0.0, 0.0, 0.0, 0.0, 0.0, 0.0, 0.0, 0.0, 0.0, 0.0, 0.0, 0.0, 0.0, 0.0, 0.0, 0.0]
twist: 
  twist: 
    linear: 
      x: -0.0134585146982
      y: -0.00627635933843
      z: -0.0342576914188
    angular: 
      x: -0.00803415291011
      y: -0.00315165403299
      z: -0.138947501779
  covariance: [0.0, 0.0, 0.0, 0.0, 0.0, 0.0, 0.0, 0.0, 0.0, 0.0, 0.0, 0.0, 0.0, 0.0, 0.0, 0.0, 0.0, 0.0, 0.0, 0.0, 0.0, 0.0, 0.0, 0.0, 0.0, 0.0, 0.0, 0.0, 0.0, 0.0, 0.0, 0.0, 0.0, 0.0, 0.0, 0.0]
---
header: 
  seq: 602
  stamp: 
    secs: 25
    nsecs: 484000000
  frame_id: "map"
child_frame_id: "base_link"
pose: 
  pose: 
    position: 
      x: -0.000715630536433
      y: -0.00451155565679
      z: 8.04305076599
    orientation: 
      x: -0.000748439249522
      y: 8.69671819291e-05
      z: -0.337867808717
      w: -0.941193285949
  covariance: [0.0, 0.0, 0.0, 0.0, 0.0, 0.0, 0.0, 0.0, 0.0, 0.0, 0.0, 0.0, 0.0, 0.0, 0.0, 0.0, 0.0, 0.0, 0.0, 0.0, 0.0, 0.0, 0.0, 0.0, 0.0, 0.0, 0.0, 0.0, 0.0, 0.0, 0.0, 0.0, 0.0, 0.0, 0.0, 0.0]
twist: 
  twist: 
    linear: 
      x: -0.0126471548196
      y: -0.00587958582269
      z: -0.0336591477645
    angular: 
      x: -0.0112380022183
      y: -0.00240767397918
      z: -0.147579744458
  covariance: [0.0, 0.0, 0.0, 0.0, 0.0, 0.0, 0.0, 0.0, 0.0, 0.0, 0.0, 0.0, 0.0, 0.0, 0.0, 0.0, 0.0, 0.0, 0.0, 0.0, 0.0, 0.0, 0.0, 0.0, 0.0, 0.0, 0.0, 0.0, 0.0, 0.0, 0.0, 0.0, 0.0, 0.0, 0.0, 0.0]
---
header: 
  seq: 603
  stamp: 
    secs: 25
    nsecs: 516000000
  frame_id: "map"
child_frame_id: "base_link"
pose: 
  pose: 
    position: 
      x: -0.00044141698163
      y: -0.00509073399007
      z: 8.04273223877
    orientation: 
      x: -0.000495771897308
      y: 0.000197301333999
      z: -0.334942417035
      w: -0.942238506718
  covariance: [0.0, 0.0, 0.0, 0.0, 0.0, 0.0, 0.0, 0.0, 0.0, 0.0, 0.0, 0.0, 0.0, 0.0, 0.0, 0.0, 0.0, 0.0, 0.0, 0.0, 0.0, 0.0, 0.0, 0.0, 0.0, 0.0, 0.0, 0.0, 0.0, 0.0, 0.0, 0.0, 0.0, 0.0, 0.0, 0.0]
twist: 
  twist: 
    linear: 
      x: -0.0131398371309
      y: -0.00569005770352
      z: -0.0333976078791
    angular: 
      x: -0.0159821920097
      y: -0.0026706927456
      z: -0.162171661854
  covariance: [0.0, 0.0, 0.0, 0.0, 0.0, 0.0, 0.0, 0.0, 0.0, 0.0, 0.0, 0.0, 0.0, 0.0, 0.0, 0.0, 0.0, 0.0, 0.0, 0.0, 0.0, 0.0, 0.0, 0.0, 0.0, 0.0, 0.0, 0.0, 0.0, 0.0, 0.0, 0.0, 0.0, 0.0, 0.0, 0.0]
---
header: 
  seq: 604
  stamp: 
    secs: 25
    nsecs: 552000000
  frame_id: "map"
child_frame_id: "base_link"
pose: 
  pose: 
    position: 
      x: -0.000187528581591
      y: -0.00559651572257
      z: 8.04258441925
    orientation: 
      x: -0.000320708503909
      y: 0.000305459815792
      z: -0.331795101123
      w: -0.943351478547
  covariance: [0.0, 0.0, 0.0, 0.0, 0.0, 0.0, 0.0, 0.0, 0.0, 0.0, 0.0, 0.0, 0.0, 0.0, 0.0, 0.0, 0.0, 0.0, 0.0, 0.0, 0.0, 0.0, 0.0, 0.0, 0.0, 0.0, 0.0, 0.0, 0.0, 0.0, 0.0, 0.0, 0.0, 0.0, 0.0, 0.0]
twist: 
  twist: 
    linear: 
      x: -0.0126656156407
      y: -0.00548244518842
      z: -0.0337574199278
    angular: 
      x: -0.00911114737391
      y: -0.00135327409953
      z: -0.174550503492
  covariance: [0.0, 0.0, 0.0, 0.0, 0.0, 0.0, 0.0, 0.0, 0.0, 0.0, 0.0, 0.0, 0.0, 0.0, 0.0, 0.0, 0.0, 0.0, 0.0, 0.0, 0.0, 0.0, 0.0, 0.0, 0.0, 0.0, 0.0, 0.0, 0.0, 0.0, 0.0, 0.0, 0.0, 0.0, 0.0, 0.0]
---
header: 
  seq: 605
  stamp: 
    secs: 25
    nsecs: 584000000
  frame_id: "map"
child_frame_id: "base_link"
pose: 
  pose: 
    position: 
      x: 6.68920838507e-05
      y: -0.00624376162887
      z: 8.04222011566
    orientation: 
      x: -0.000206631963019
      y: 0.000354767269551
      z: -0.329793210112
      w: -0.944053139281
  covariance: [0.0, 0.0, 0.0, 0.0, 0.0, 0.0, 0.0, 0.0, 0.0, 0.0, 0.0, 0.0, 0.0, 0.0, 0.0, 0.0, 0.0, 0.0, 0.0, 0.0, 0.0, 0.0, 0.0, 0.0, 0.0, 0.0, 0.0, 0.0, 0.0, 0.0, 0.0, 0.0, 0.0, 0.0, 0.0, 0.0]
twist: 
  twist: 
    linear: 
      x: -0.0122414642866
      y: -0.00470067186164
      z: -0.034440182571
    angular: 
      x: -0.00796035584062
      y: -0.00205485057086
      z: -0.179766729474
  covariance: [0.0, 0.0, 0.0, 0.0, 0.0, 0.0, 0.0, 0.0, 0.0, 0.0, 0.0, 0.0, 0.0, 0.0, 0.0, 0.0, 0.0, 0.0, 0.0, 0.0, 0.0, 0.0, 0.0, 0.0, 0.0, 0.0, 0.0, 0.0, 0.0, 0.0, 0.0, 0.0, 0.0, 0.0, 0.0, 0.0]
---
header: 
  seq: 606
  stamp: 
    secs: 25
    nsecs: 616000000
  frame_id: "map"
child_frame_id: "base_link"
pose: 
  pose: 
    position: 
      x: 0.000279750209302
      y: -0.00683512352407
      z: 8.04247093201
    orientation: 
      x: -4.39404150578e-05
      y: 0.000421957269191
      z: -0.326277593964
      w: -0.945273859528
  covariance: [0.0, 0.0, 0.0, 0.0, 0.0, 0.0, 0.0, 0.0, 0.0, 0.0, 0.0, 0.0, 0.0, 0.0, 0.0, 0.0, 0.0, 0.0, 0.0, 0.0, 0.0, 0.0, 0.0, 0.0, 0.0, 0.0, 0.0, 0.0, 0.0, 0.0, 0.0, 0.0, 0.0, 0.0, 0.0, 0.0]
twist: 
  twist: 
    linear: 
      x: -0.0121311969489
      y: -0.00427371833837
      z: -0.0352134400998
    angular: 
      x: -0.00547591876239
      y: -0.000690973945893
      z: -0.190675392747
  covariance: [0.0, 0.0, 0.0, 0.0, 0.0, 0.0, 0.0, 0.0, 0.0, 0.0, 0.0, 0.0, 0.0, 0.0, 0.0, 0.0, 0.0, 0.0, 0.0, 0.0, 0.0, 0.0, 0.0, 0.0, 0.0, 0.0, 0.0, 0.0, 0.0, 0.0, 0.0, 0.0, 0.0, 0.0, 0.0, 0.0]
---
header: 
  seq: 607
  stamp: 
    secs: 25
    nsecs: 652000000
  frame_id: "map"
child_frame_id: "base_link"
pose: 
  pose: 
    position: 
      x: 0.000634541676845
      y: -0.00758475391194
      z: 8.04380893707
    orientation: 
      x: 4.2086015462e-05
      y: 0.000481519059681
      z: -0.322944010055
      w: -0.946417998951
  covariance: [0.0, 0.0, 0.0, 0.0, 0.0, 0.0, 0.0, 0.0, 0.0, 0.0, 0.0, 0.0, 0.0, 0.0, 0.0, 0.0, 0.0, 0.0, 0.0, 0.0, 0.0, 0.0, 0.0, 0.0, 0.0, 0.0, 0.0, 0.0, 0.0, 0.0, 0.0, 0.0, 0.0, 0.0, 0.0, 0.0]
twist: 
  twist: 
    linear: 
      x: -0.0122630381493
      y: -0.00403629450847
      z: -0.0347166390054
    angular: 
      x: -0.00362499570474
      y: 0.000405434431741
      z: -0.196742787957
  covariance: [0.0, 0.0, 0.0, 0.0, 0.0, 0.0, 0.0, 0.0, 0.0, 0.0, 0.0, 0.0, 0.0, 0.0, 0.0, 0.0, 0.0, 0.0, 0.0, 0.0, 0.0, 0.0, 0.0, 0.0, 0.0, 0.0, 0.0, 0.0, 0.0, 0.0, 0.0, 0.0, 0.0, 0.0, 0.0, 0.0]
---
header: 
  seq: 608
  stamp: 
    secs: 25
    nsecs: 684000000
  frame_id: "map"
child_frame_id: "base_link"
pose: 
  pose: 
    position: 
      x: 0.000979491509497
      y: -0.0085264146328
      z: 8.04552268982
    orientation: 
      x: 8.35916885764e-05
      y: 0.000480705880691
      z: -0.321079496697
      w: -0.947052245801
  covariance: [0.0, 0.0, 0.0, 0.0, 0.0, 0.0, 0.0, 0.0, 0.0, 0.0, 0.0, 0.0, 0.0, 0.0, 0.0, 0.0, 0.0, 0.0, 0.0, 0.0, 0.0, 0.0, 0.0, 0.0, 0.0, 0.0, 0.0, 0.0, 0.0, 0.0, 0.0, 0.0, 0.0, 0.0, 0.0, 0.0]
twist: 
  twist: 
    linear: 
      x: -0.0121551387452
      y: -0.00292610772089
      z: -0.0340070257338
    angular: 
      x: -0.00455059437081
      y: 0.000761046307161
      z: -0.199607595801
  covariance: [0.0, 0.0, 0.0, 0.0, 0.0, 0.0, 0.0, 0.0, 0.0, 0.0, 0.0, 0.0, 0.0, 0.0, 0.0, 0.0, 0.0, 0.0, 0.0, 0.0, 0.0, 0.0, 0.0, 0.0, 0.0, 0.0, 0.0, 0.0, 0.0, 0.0, 0.0, 0.0, 0.0, 0.0, 0.0, 0.0]
---
header: 
  seq: 609
  stamp: 
    secs: 25
    nsecs: 716000000
  frame_id: "map"
child_frame_id: "base_link"
pose: 
  pose: 
    position: 
      x: 0.00115777621977
      y: -0.00919842533767
      z: 8.04647922516
    orientation: 
      x: 0.000172188377152
      y: 0.000548898596663
      z: -0.317260992222
      w: -0.948338061855
  covariance: [0.0, 0.0, 0.0, 0.0, 0.0, 0.0, 0.0, 0.0, 0.0, 0.0, 0.0, 0.0, 0.0, 0.0, 0.0, 0.0, 0.0, 0.0, 0.0, 0.0, 0.0, 0.0, 0.0, 0.0, 0.0, 0.0, 0.0, 0.0, 0.0, 0.0, 0.0, 0.0, 0.0, 0.0, 0.0, 0.0]
twist: 
  twist: 
    linear: 
      x: -0.0124673313111
      y: -0.00318118302083
      z: -0.0341898048728
    angular: 
      x: -0.00641698017716
      y: -0.00128993706312
      z: -0.202643916011
  covariance: [0.0, 0.0, 0.0, 0.0, 0.0, 0.0, 0.0, 0.0, 0.0, 0.0, 0.0, 0.0, 0.0, 0.0, 0.0, 0.0, 0.0, 0.0, 0.0, 0.0, 0.0, 0.0, 0.0, 0.0, 0.0, 0.0, 0.0, 0.0, 0.0, 0.0, 0.0, 0.0, 0.0, 0.0, 0.0, 0.0]
---
header: 
  seq: 610
  stamp: 
    secs: 25
    nsecs: 752000000
  frame_id: "map"
child_frame_id: "base_link"
pose: 
  pose: 
    position: 
      x: 0.00131803727709
      y: -0.00979383010417
      z: 8.04745674133
    orientation: 
      x: 0.000297852364943
      y: 0.000523944832661
      z: -0.313442782774
      w: -0.949606892729
  covariance: [0.0, 0.0, 0.0, 0.0, 0.0, 0.0, 0.0, 0.0, 0.0, 0.0, 0.0, 0.0, 0.0, 0.0, 0.0, 0.0, 0.0, 0.0, 0.0, 0.0, 0.0, 0.0, 0.0, 0.0, 0.0, 0.0, 0.0, 0.0, 0.0, 0.0, 0.0, 0.0, 0.0, 0.0, 0.0, 0.0]
twist: 
  twist: 
    linear: 
      x: -0.0125502354605
      y: -0.00274670222093
      z: -0.0345619532446
    angular: 
      x: -0.00483082793653
      y: 0.00307913008146
      z: -0.199176460505
  covariance: [0.0, 0.0, 0.0, 0.0, 0.0, 0.0, 0.0, 0.0, 0.0, 0.0, 0.0, 0.0, 0.0, 0.0, 0.0, 0.0, 0.0, 0.0, 0.0, 0.0, 0.0, 0.0, 0.0, 0.0, 0.0, 0.0, 0.0, 0.0, 0.0, 0.0, 0.0, 0.0, 0.0, 0.0, 0.0, 0.0]
---
header: 
  seq: 611
  stamp: 
    secs: 25
    nsecs: 784000000
  frame_id: "map"
child_frame_id: "base_link"
pose: 
  pose: 
    position: 
      x: 0.00142897455953
      y: -0.0105471666902
      z: 8.04831981659
    orientation: 
      x: 0.000364476829197
      y: 0.000528334515425
      z: -0.311558924013
      w: -0.950226598917
  covariance: [0.0, 0.0, 0.0, 0.0, 0.0, 0.0, 0.0, 0.0, 0.0, 0.0, 0.0, 0.0, 0.0, 0.0, 0.0, 0.0, 0.0, 0.0, 0.0, 0.0, 0.0, 0.0, 0.0, 0.0, 0.0, 0.0, 0.0, 0.0, 0.0, 0.0, 0.0, 0.0, 0.0, 0.0, 0.0, 0.0]
twist: 
  twist: 
    linear: 
      x: -0.0125333983459
      y: -0.0021661453431
      z: -0.0364638873946
    angular: 
      x: -0.00912220403552
      y: 0.00175569381099
      z: -0.196748360991
  covariance: [0.0, 0.0, 0.0, 0.0, 0.0, 0.0, 0.0, 0.0, 0.0, 0.0, 0.0, 0.0, 0.0, 0.0, 0.0, 0.0, 0.0, 0.0, 0.0, 0.0, 0.0, 0.0, 0.0, 0.0, 0.0, 0.0, 0.0, 0.0, 0.0, 0.0, 0.0, 0.0, 0.0, 0.0, 0.0, 0.0]
---
header: 
  seq: 612
  stamp: 
    secs: 25
    nsecs: 816000000
  frame_id: "map"
child_frame_id: "base_link"
pose: 
  pose: 
    position: 
      x: 0.00167300226167
      y: -0.01087030489
      z: 8.04920387268
    orientation: 
      x: 0.000517481932006
      y: 0.000519710850816
      z: -0.307772788318
      w: -0.951459562823
  covariance: [0.0, 0.0, 0.0, 0.0, 0.0, 0.0, 0.0, 0.0, 0.0, 0.0, 0.0, 0.0, 0.0, 0.0, 0.0, 0.0, 0.0, 0.0, 0.0, 0.0, 0.0, 0.0, 0.0, 0.0, 0.0, 0.0, 0.0, 0.0, 0.0, 0.0, 0.0, 0.0, 0.0, 0.0, 0.0, 0.0]
twist: 
  twist: 
    linear: 
      x: -0.0126101917378
      y: -0.00155593236778
      z: -0.0378668509537
    angular: 
      x: -0.00724881701171
      y: 0.00372851267457
      z: -0.202436357737
  covariance: [0.0, 0.0, 0.0, 0.0, 0.0, 0.0, 0.0, 0.0, 0.0, 0.0, 0.0, 0.0, 0.0, 0.0, 0.0, 0.0, 0.0, 0.0, 0.0, 0.0, 0.0, 0.0, 0.0, 0.0, 0.0, 0.0, 0.0, 0.0, 0.0, 0.0, 0.0, 0.0, 0.0, 0.0, 0.0, 0.0]
---
header: 
  seq: 613
  stamp: 
    secs: 25
    nsecs: 848000000
  frame_id: "map"
child_frame_id: "base_link"
pose: 
  pose: 
    position: 
      x: 0.0023272393737
      y: -0.0107073187828
      z: 8.05093669891
    orientation: 
      x: 0.000666615711791
      y: 0.000456742680817
      z: -0.304000835037
      w: -0.952671432232
  covariance: [0.0, 0.0, 0.0, 0.0, 0.0, 0.0, 0.0, 0.0, 0.0, 0.0, 0.0, 0.0, 0.0, 0.0, 0.0, 0.0, 0.0, 0.0, 0.0, 0.0, 0.0, 0.0, 0.0, 0.0, 0.0, 0.0, 0.0, 0.0, 0.0, 0.0, 0.0, 0.0, 0.0, 0.0, 0.0, 0.0]
twist: 
  twist: 
    linear: 
      x: -0.0124501914702
      y: -0.000675880011548
      z: -0.0384090110607
    angular: 
      x: -0.00165412062779
      y: -0.000127354549477
      z: -0.195147186518
  covariance: [0.0, 0.0, 0.0, 0.0, 0.0, 0.0, 0.0, 0.0, 0.0, 0.0, 0.0, 0.0, 0.0, 0.0, 0.0, 0.0, 0.0, 0.0, 0.0, 0.0, 0.0, 0.0, 0.0, 0.0, 0.0, 0.0, 0.0, 0.0, 0.0, 0.0, 0.0, 0.0, 0.0, 0.0, 0.0, 0.0]
---
header: 
  seq: 614
  stamp: 
    secs: 25
    nsecs: 884000000
  frame_id: "map"
child_frame_id: "base_link"
pose: 
  pose: 
    position: 
      x: 0.00304258661345
      y: -0.0105000147596
      z: 8.05279064178
    orientation: 
      x: 0.000721974835868
      y: 0.00044566688827
      z: -0.302126880785
      w: -0.953267325449
  covariance: [0.0, 0.0, 0.0, 0.0, 0.0, 0.0, 0.0, 0.0, 0.0, 0.0, 0.0, 0.0, 0.0, 0.0, 0.0, 0.0, 0.0, 0.0, 0.0, 0.0, 0.0, 0.0, 0.0, 0.0, 0.0, 0.0, 0.0, 0.0, 0.0, 0.0, 0.0, 0.0, 0.0, 0.0, 0.0, 0.0]
twist: 
  twist: 
    linear: 
      x: -0.0110299120354
      y: 0.000824352660694
      z: -0.0397261980816
    angular: 
      x: -0.00576687138528
      y: 0.00175602850504
      z: -0.196715041995
  covariance: [0.0, 0.0, 0.0, 0.0, 0.0, 0.0, 0.0, 0.0, 0.0, 0.0, 0.0, 0.0, 0.0, 0.0, 0.0, 0.0, 0.0, 0.0, 0.0, 0.0, 0.0, 0.0, 0.0, 0.0, 0.0, 0.0, 0.0, 0.0, 0.0, 0.0, 0.0, 0.0, 0.0, 0.0, 0.0, 0.0]
---
header: 
  seq: 615
  stamp: 
    secs: 25
    nsecs: 916000000
  frame_id: "map"
child_frame_id: "base_link"
pose: 
  pose: 
    position: 
      x: 0.00347934197634
      y: -0.0103085301816
      z: 8.05385017395
    orientation: 
      x: 0.000789326528764
      y: 0.000433620586335
      z: -0.2985037691
      w: -0.954407987757
  covariance: [0.0, 0.0, 0.0, 0.0, 0.0, 0.0, 0.0, 0.0, 0.0, 0.0, 0.0, 0.0, 0.0, 0.0, 0.0, 0.0, 0.0, 0.0, 0.0, 0.0, 0.0, 0.0, 0.0, 0.0, 0.0, 0.0, 0.0, 0.0, 0.0, 0.0, 0.0, 0.0, 0.0, 0.0, 0.0, 0.0]
twist: 
  twist: 
    linear: 
      x: -0.00992896535934
      y: 0.00201179027766
      z: -0.0407857939894
    angular: 
      x: -0.00370705500245
      y: 0.00148560572416
      z: -0.188159197569
  covariance: [0.0, 0.0, 0.0, 0.0, 0.0, 0.0, 0.0, 0.0, 0.0, 0.0, 0.0, 0.0, 0.0, 0.0, 0.0, 0.0, 0.0, 0.0, 0.0, 0.0, 0.0, 0.0, 0.0, 0.0, 0.0, 0.0, 0.0, 0.0, 0.0, 0.0, 0.0, 0.0, 0.0, 0.0, 0.0, 0.0]
---
header: 
  seq: 616
  stamp: 
    secs: 25
    nsecs: 952000000
  frame_id: "map"
child_frame_id: "base_link"
pose: 
  pose: 
    position: 
      x: 0.00390360201709
      y: -0.0100773600861
      z: 8.05480003357
    orientation: 
      x: 0.000812949075912
      y: 0.000431560268104
      z: -0.295036727194
      w: -0.955485556233
  covariance: [0.0, 0.0, 0.0, 0.0, 0.0, 0.0, 0.0, 0.0, 0.0, 0.0, 0.0, 0.0, 0.0, 0.0, 0.0, 0.0, 0.0, 0.0, 0.0, 0.0, 0.0, 0.0, 0.0, 0.0, 0.0, 0.0, 0.0, 0.0, 0.0, 0.0, 0.0, 0.0, 0.0, 0.0, 0.0, 0.0]
twist: 
  twist: 
    linear: 
      x: -0.00902339213231
      y: 0.00263590747806
      z: -0.0420660155366
    angular: 
      x: -0.00104787666351
      y: -0.000912892108317
      z: -0.178214356303
  covariance: [0.0, 0.0, 0.0, 0.0, 0.0, 0.0, 0.0, 0.0, 0.0, 0.0, 0.0, 0.0, 0.0, 0.0, 0.0, 0.0, 0.0, 0.0, 0.0, 0.0, 0.0, 0.0, 0.0, 0.0, 0.0, 0.0, 0.0, 0.0, 0.0, 0.0, 0.0, 0.0, 0.0, 0.0, 0.0, 0.0]
---
header: 
  seq: 617
  stamp: 
    secs: 25
    nsecs: 984000000
  frame_id: "map"
child_frame_id: "base_link"
pose: 
  pose: 
    position: 
      x: 0.00434379931539
      y: -0.00975293572992
      z: 8.05557537079
    orientation: 
      x: 0.000821183825133
      y: 0.000437988835534
      z: -0.293360315221
      w: -0.956001581173
  covariance: [0.0, 0.0, 0.0, 0.0, 0.0, 0.0, 0.0, 0.0, 0.0, 0.0, 0.0, 0.0, 0.0, 0.0, 0.0, 0.0, 0.0, 0.0, 0.0, 0.0, 0.0, 0.0, 0.0, 0.0, 0.0, 0.0, 0.0, 0.0, 0.0, 0.0, 0.0, 0.0, 0.0, 0.0, 0.0, 0.0]
twist: 
  twist: 
    linear: 
      x: -0.00849458909502
      y: 0.00420412415232
      z: -0.043314521341
    angular: 
      x: 0.00113435345702
      y: -0.00464009959251
      z: -0.171090856194
  covariance: [0.0, 0.0, 0.0, 0.0, 0.0, 0.0, 0.0, 0.0, 0.0, 0.0, 0.0, 0.0, 0.0, 0.0, 0.0, 0.0, 0.0, 0.0, 0.0, 0.0, 0.0, 0.0, 0.0, 0.0, 0.0, 0.0, 0.0, 0.0, 0.0, 0.0, 0.0, 0.0, 0.0, 0.0, 0.0, 0.0]
---
header: 
  seq: 618
  stamp: 
    secs: 26
    nsecs:  16000000
  frame_id: "map"
child_frame_id: "base_link"
pose: 
  pose: 
    position: 
      x: 0.0045786513947
      y: -0.00948813743889
      z: 8.05578994751
    orientation: 
      x: 0.000755637881857
      y: 0.000529253658342
      z: -0.290156164283
      w: -0.956978945516
  covariance: [0.0, 0.0, 0.0, 0.0, 0.0, 0.0, 0.0, 0.0, 0.0, 0.0, 0.0, 0.0, 0.0, 0.0, 0.0, 0.0, 0.0, 0.0, 0.0, 0.0, 0.0, 0.0, 0.0, 0.0, 0.0, 0.0, 0.0, 0.0, 0.0, 0.0, 0.0, 0.0, 0.0, 0.0, 0.0, 0.0]
twist: 
  twist: 
    linear: 
      x: -0.00827626311196
      y: 0.00528520565267
      z: -0.0451429515158
    angular: 
      x: 0.000278441206319
      y: -0.00850808341056
      z: -0.163287132978
  covariance: [0.0, 0.0, 0.0, 0.0, 0.0, 0.0, 0.0, 0.0, 0.0, 0.0, 0.0, 0.0, 0.0, 0.0, 0.0, 0.0, 0.0, 0.0, 0.0, 0.0, 0.0, 0.0, 0.0, 0.0, 0.0, 0.0, 0.0, 0.0, 0.0, 0.0, 0.0, 0.0, 0.0, 0.0, 0.0, 0.0]
---
header: 
  seq: 619
  stamp: 
    secs: 26
    nsecs:  52000000
  frame_id: "map"
child_frame_id: "base_link"
pose: 
  pose: 
    position: 
      x: 0.00479243928567
      y: -0.00919347256422
      z: 8.05595207214
    orientation: 
      x: 0.000618365726165
      y: 0.000661365706224
      z: -0.287187572082
      w: -0.957873997065
  covariance: [0.0, 0.0, 0.0, 0.0, 0.0, 0.0, 0.0, 0.0, 0.0, 0.0, 0.0, 0.0, 0.0, 0.0, 0.0, 0.0, 0.0, 0.0, 0.0, 0.0, 0.0, 0.0, 0.0, 0.0, 0.0, 0.0, 0.0, 0.0, 0.0, 0.0, 0.0, 0.0, 0.0, 0.0, 0.0, 0.0]
twist: 
  twist: 
    linear: 
      x: -0.00779990940846
      y: 0.00673538316321
      z: -0.0462107565718
    angular: 
      x: 0.00609740847722
      y: -0.0101200556383
      z: -0.148680195212
  covariance: [0.0, 0.0, 0.0, 0.0, 0.0, 0.0, 0.0, 0.0, 0.0, 0.0, 0.0, 0.0, 0.0, 0.0, 0.0, 0.0, 0.0, 0.0, 0.0, 0.0, 0.0, 0.0, 0.0, 0.0, 0.0, 0.0, 0.0, 0.0, 0.0, 0.0, 0.0, 0.0, 0.0, 0.0, 0.0, 0.0]
---
header: 
  seq: 620
  stamp: 
    secs: 26
    nsecs:  84000000
  frame_id: "map"
child_frame_id: "base_link"
pose: 
  pose: 
    position: 
      x: 0.00495550967753
      y: -0.00875991117209
      z: 8.05578804016
    orientation: 
      x: 0.000553470058291
      y: 0.000744815289384
      z: -0.285781637509
      w: -0.958294454026
