header: 
  seq: 14476
  stamp: 
    secs: 488
    nsecs: 339811434
  frame_id: "map"
child_frame_id: "base_link"
pose: 
  pose: 
    position: 
      x: -0.0112112415954
      y: 0.00810619164258
      z: 0.0126377521083
    orientation: 
      x: -0.00442360677916
      y: -0.000579974879824
      z: 0.00192248634798
      w: -0.999988266062
  covariance: [0.0, 0.0, 0.0, 0.0, 0.0, 0.0, 0.0, 0.0, 0.0, 0.0, 0.0, 0.0, 0.0, 0.0, 0.0, 0.0, 0.0, 0.0, 0.0, 0.0, 0.0, 0.0, 0.0, 0.0, 0.0, 0.0, 0.0, 0.0, 0.0, 0.0, 0.0, 0.0, 0.0, 0.0, 0.0, 0.0]
twist: 
  twist: 
    linear: 
      x: -0.0188036621364
      y: 0.0174949745236
      z: -0.0345206243916
    angular: 
      x: 0.000128990155645
      y: -0.00150853861123
      z: -0.000393341528252
  covariance: [0.0, 0.0, 0.0, 0.0, 0.0, 0.0, 0.0, 0.0, 0.0, 0.0, 0.0, 0.0, 0.0, 0.0, 0.0, 0.0, 0.0, 0.0, 0.0, 0.0, 0.0, 0.0, 0.0, 0.0, 0.0, 0.0, 0.0, 0.0, 0.0, 0.0, 0.0, 0.0, 0.0, 0.0, 0.0, 0.0]
---
header: 
  seq: 14477
  stamp: 
    secs: 488
    nsecs: 379811434
  frame_id: "map"
child_frame_id: "base_link"
pose: 
  pose: 
    position: 
      x: -0.0112020568922
      y: 0.0082034105435
      z: 0.0114648127928
    orientation: 
      x: -0.00443403351435
      y: -0.000390376952526
      z: 0.00188455418432
      w: -0.999988350356
  covariance: [0.0, 0.0, 0.0, 0.0, 0.0, 0.0, 0.0, 0.0, 0.0, 0.0, 0.0, 0.0, 0.0, 0.0, 0.0, 0.0, 0.0, 0.0, 0.0, 0.0, 0.0, 0.0, 0.0, 0.0, 0.0, 0.0, 0.0, 0.0, 0.0, 0.0, 0.0, 0.0, 0.0, 0.0, 0.0, 0.0]
twist: 
  twist: 
    linear: 
      x: -0.0201221219801
      y: 0.0172411466364
      z: -0.0417628474874
    angular: 
      x: 0.000775895779952
      y: -0.0468239337206
      z: 0.00137979420833
  covariance: [0.0, 0.0, 0.0, 0.0, 0.0, 0.0, 0.0, 0.0, 0.0, 0.0, 0.0, 0.0, 0.0, 0.0, 0.0, 0.0, 0.0, 0.0, 0.0, 0.0, 0.0, 0.0, 0.0, 0.0, 0.0, 0.0, 0.0, 0.0, 0.0, 0.0, 0.0, 0.0, 0.0, 0.0, 0.0, 0.0]
---
header: 
  seq: 14478
  stamp: 
    secs: 488
    nsecs: 411811949
  frame_id: "map"
child_frame_id: "base_link"
pose: 
  pose: 
    position: 
      x: -0.0112823201343
      y: 0.00839235913008
      z: 0.0105401892215
    orientation: 
      x: -0.00443392238497
      y: -0.000323173308667
      z: 0.00188194107971
      w: -0.999988350356
  covariance: [0.0, 0.0, 0.0, 0.0, 0.0, 0.0, 0.0, 0.0, 0.0, 0.0, 0.0, 0.0, 0.0, 0.0, 0.0, 0.0, 0.0, 0.0, 0.0, 0.0, 0.0, 0.0, 0.0, 0.0, 0.0, 0.0, 0.0, 0.0, 0.0, 0.0, 0.0, 0.0, 0.0, 0.0, 0.0, 0.0]
twist: 
  twist: 
    linear: 
      x: -0.0184776114143
      y: 0.0176568651869
      z: -0.0351246195677
    angular: 
      x: 0.000604091328569
      y: 0.00224003149197
      z: -0.00114600220695
  covariance: [0.0, 0.0, 0.0, 0.0, 0.0, 0.0, 0.0, 0.0, 0.0, 0.0, 0.0, 0.0, 0.0, 0.0, 0.0, 0.0, 0.0, 0.0, 0.0, 0.0, 0.0, 0.0, 0.0, 0.0, 0.0, 0.0, 0.0, 0.0, 0.0, 0.0, 0.0, 0.0, 0.0, 0.0, 0.0, 0.0]
---
header: 
  seq: 14479
  stamp: 
    secs: 488
    nsecs: 439811949
  frame_id: "map"
child_frame_id: "base_link"
pose: 
  pose: 
    position: 
      x: -0.0113339796662
      y: 0.00857137981802
      z: 0.00954868458211
    orientation: 
      x: -0.00442092831401
      y: -0.000343199976427
      z: 0.0018793279751
      w: -0.999988434649
  covariance: [0.0, 0.0, 0.0, 0.0, 0.0, 0.0, 0.0, 0.0, 0.0, 0.0, 0.0, 0.0, 0.0, 0.0, 0.0, 0.0, 0.0, 0.0, 0.0, 0.0, 0.0, 0.0, 0.0, 0.0, 0.0, 0.0, 0.0, 0.0, 0.0, 0.0, 0.0, 0.0, 0.0, 0.0, 0.0, 0.0]
twist: 
  twist: 
    linear: 
      x: -0.0182741401591
      y: 0.0180274219776
      z: -0.0357053586565
    angular: 
      x: -0.00108400697354
      y: 5.876821524e-05
      z: 0.00116617255844
  covariance: [0.0, 0.0, 0.0, 0.0, 0.0, 0.0, 0.0, 0.0, 0.0, 0.0, 0.0, 0.0, 0.0, 0.0, 0.0, 0.0, 0.0, 0.0, 0.0, 0.0, 0.0, 0.0, 0.0, 0.0, 0.0, 0.0, 0.0, 0.0, 0.0, 0.0, 0.0, 0.0, 0.0, 0.0, 0.0, 0.0]
---
header: 
  seq: 14480
  stamp: 
    secs: 488
    nsecs: 479811949
  frame_id: "map"
child_frame_id: "base_link"
pose: 
  pose: 
    position: 
      x: -0.0115164415911
      y: 0.00893899332732
      z: 0.00810395926237
    orientation: 
      x: -0.00441073404502
      y: -0.000341744922336
      z: 0.00185602076787
      w: -0.99998856109
  covariance: [0.0, 0.0, 0.0, 0.0, 0.0, 0.0, 0.0, 0.0, 0.0, 0.0, 0.0, 0.0, 0.0, 0.0, 0.0, 0.0, 0.0, 0.0, 0.0, 0.0, 0.0, 0.0, 0.0, 0.0, 0.0, 0.0, 0.0, 0.0, 0.0, 0.0, 0.0, 0.0, 0.0, 0.0, 0.0, 0.0]
twist: 
  twist: 
    linear: 
      x: -0.0183589527803
      y: 0.0175513991618
      z: -0.0366533260978
    angular: 
      x: -0.000733696855605
      y: 0.00253558298573
      z: 0.000210722559132
  covariance: [0.0, 0.0, 0.0, 0.0, 0.0, 0.0, 0.0, 0.0, 0.0, 0.0, 0.0, 0.0, 0.0, 0.0, 0.0, 0.0, 0.0, 0.0, 0.0, 0.0, 0.0, 0.0, 0.0, 0.0, 0.0, 0.0, 0.0, 0.0, 0.0, 0.0, 0.0, 0.0, 0.0, 0.0, 0.0, 0.0]
---
header: 
  seq: 14481
  stamp: 
    secs: 488
    nsecs: 511812465
  frame_id: "map"
child_frame_id: "base_link"
pose: 
  pose: 
    position: 
      x: -0.011743273586
      y: 0.00929467286915
      z: 0.00697398697957
    orientation: 
      x: -0.00443588600005
      y: -0.000337091482207
      z: 0.00187182583607
      w: -0.999988434649
  covariance: [0.0, 0.0, 0.0, 0.0, 0.0, 0.0, 0.0, 0.0, 0.0, 0.0, 0.0, 0.0, 0.0, 0.0, 0.0, 0.0, 0.0, 0.0, 0.0, 0.0, 0.0, 0.0, 0.0, 0.0, 0.0, 0.0, 0.0, 0.0, 0.0, 0.0, 0.0, 0.0, 0.0, 0.0, 0.0, 0.0]
twist: 
  twist: 
    linear: 
      x: -0.0181419954124
      y: 0.017355522274
      z: -0.0364344230488
    angular: 
      x: 0.00210451171733
      y: -0.00034501159098
      z: -0.00061998993624
  covariance: [0.0, 0.0, 0.0, 0.0, 0.0, 0.0, 0.0, 0.0, 0.0, 0.0, 0.0, 0.0, 0.0, 0.0, 0.0, 0.0, 0.0, 0.0, 0.0, 0.0, 0.0, 0.0, 0.0, 0.0, 0.0, 0.0, 0.0, 0.0, 0.0, 0.0, 0.0, 0.0, 0.0, 0.0, 0.0, 0.0]
---
header: 
  seq: 14482
  stamp: 
    secs: 488
    nsecs: 539812465
  frame_id: "map"
child_frame_id: "base_link"
pose: 
  pose: 
    position: 
      x: -0.0119364736602
      y: 0.00961296353489
      z: 0.00598385883495
    orientation: 
      x: -0.00443948692142
      y: -0.000347304848981
      z: 0.00187001352158
      w: -0.999988392502
  covariance: [0.0, 0.0, 0.0, 0.0, 0.0, 0.0, 0.0, 0.0, 0.0, 0.0, 0.0, 0.0, 0.0, 0.0, 0.0, 0.0, 0.0, 0.0, 0.0, 0.0, 0.0, 0.0, 0.0, 0.0, 0.0, 0.0, 0.0, 0.0, 0.0, 0.0, 0.0, 0.0, 0.0, 0.0, 0.0, 0.0]
twist: 
  twist: 
    linear: 
      x: -0.0184164946393
      y: 0.017483205075
      z: -0.0363478710201
    angular: 
      x: 0.00117719091941
      y: 0.000817892840132
      z: -0.00044444273226
  covariance: [0.0, 0.0, 0.0, 0.0, 0.0, 0.0, 0.0, 0.0, 0.0, 0.0, 0.0, 0.0, 0.0, 0.0, 0.0, 0.0, 0.0, 0.0, 0.0, 0.0, 0.0, 0.0, 0.0, 0.0, 0.0, 0.0, 0.0, 0.0, 0.0, 0.0, 0.0, 0.0, 0.0, 0.0, 0.0, 0.0]
---
header: 
  seq: 14483
  stamp: 
    secs: 488
    nsecs: 579812465
  frame_id: "map"
child_frame_id: "base_link"
pose: 
  pose: 
    position: 
      x: -0.0123078105971
      y: 0.0101461550221
      z: 0.00457532377914
    orientation: 
      x: -0.00443889949972
      y: -0.000345669024423
      z: 0.00187979159043
      w: -0.999988392502
  covariance: [0.0, 0.0, 0.0, 0.0, 0.0, 0.0, 0.0, 0.0, 0.0, 0.0, 0.0, 0.0, 0.0, 0.0, 0.0, 0.0, 0.0, 0.0, 0.0, 0.0, 0.0, 0.0, 0.0, 0.0, 0.0, 0.0, 0.0, 0.0, 0.0, 0.0, 0.0, 0.0, 0.0, 0.0, 0.0, 0.0]
twist: 
  twist: 
    linear: 
      x: -0.0184564810847
      y: 0.0175079799011
      z: -0.0372872932357
    angular: 
      x: 0.0026522828266
      y: -0.000446201273007
      z: 0.000778123794589
  covariance: [0.0, 0.0, 0.0, 0.0, 0.0, 0.0, 0.0, 0.0, 0.0, 0.0, 0.0, 0.0, 0.0, 0.0, 0.0, 0.0, 0.0, 0.0, 0.0, 0.0, 0.0, 0.0, 0.0, 0.0, 0.0, 0.0, 0.0, 0.0, 0.0, 0.0, 0.0, 0.0, 0.0, 0.0, 0.0, 0.0]
---
header: 
  seq: 14484
  stamp: 
    secs: 488
    nsecs: 611812981
  frame_id: "map"
child_frame_id: "base_link"
pose: 
  pose: 
    position: 
      x: -0.0123798400164
      y: 0.0102072115988
      z: 0.003623689292
    orientation: 
      x: -0.00445497967488
      y: -0.000333125891816
      z: 0.00187667272364
      w: -0.999988308209
  covariance: [0.0, 0.0, 0.0, 0.0, 0.0, 0.0, 0.0, 0.0, 0.0, 0.0, 0.0, 0.0, 0.0, 0.0, 0.0, 0.0, 0.0, 0.0, 0.0, 0.0, 0.0, 0.0, 0.0, 0.0, 0.0, 0.0, 0.0, 0.0, 0.0, 0.0, 0.0, 0.0, 0.0, 0.0, 0.0, 0.0]
twist: 
  twist: 
    linear: 
      x: -0.0183117089392
      y: 0.0170325513763
      z: -0.0376041286762
    angular: 
      x: 0.001467296388
      y: -0.00078188983025
      z: 0.000447017519036
  covariance: [0.0, 0.0, 0.0, 0.0, 0.0, 0.0, 0.0, 0.0, 0.0, 0.0, 0.0, 0.0, 0.0, 0.0, 0.0, 0.0, 0.0, 0.0, 0.0, 0.0, 0.0, 0.0, 0.0, 0.0, 0.0, 0.0, 0.0, 0.0, 0.0, 0.0, 0.0, 0.0, 0.0, 0.0, 0.0, 0.0]
---
header: 
  seq: 14485
  stamp: 
    secs: 488
    nsecs: 639812981
  frame_id: "map"
child_frame_id: "base_link"
pose: 
  pose: 
    position: 
      x: -0.0118781160563
      y: 0.00947561208159
      z: 0.00320944213308
    orientation: 
      x: -0.00444092024354
      y: -0.000351011796017
      z: 0.0018963553019
      w: -0.999988350356
  covariance: [0.0, 0.0, 0.0, 0.0, 0.0, 0.0, 0.0, 0.0, 0.0, 0.0, 0.0, 0.0, 0.0, 0.0, 0.0, 0.0, 0.0, 0.0, 0.0, 0.0, 0.0, 0.0, 0.0, 0.0, 0.0, 0.0, 0.0, 0.0, 0.0, 0.0, 0.0, 0.0, 0.0, 0.0, 0.0, 0.0]
twist: 
  twist: 
    linear: 
      x: -0.0176303818109
      y: 0.0164184970074
      z: -0.0377019063645
    angular: 
      x: -0.000136999544338
      y: -0.000730866973754
      z: 0.000611579394899
  covariance: [0.0, 0.0, 0.0, 0.0, 0.0, 0.0, 0.0, 0.0, 0.0, 0.0, 0.0, 0.0, 0.0, 0.0, 0.0, 0.0, 0.0, 0.0, 0.0, 0.0, 0.0, 0.0, 0.0, 0.0, 0.0, 0.0, 0.0, 0.0, 0.0, 0.0, 0.0, 0.0, 0.0, 0.0, 0.0, 0.0]
---
header: 
  seq: 14486
  stamp: 
    secs: 488
    nsecs: 679812981
  frame_id: "map"
child_frame_id: "base_link"
pose: 
  pose: 
    position: 
      x: -0.0113811260089
      y: 0.00871297717094
      z: 0.00255320034921
    orientation: 
      x: -0.00445461253632
      y: -0.000369655026401
      z: 0.00188059238056
      w: -0.999988266062
  covariance: [0.0, 0.0, 0.0, 0.0, 0.0, 0.0, 0.0, 0.0, 0.0, 0.0, 0.0, 0.0, 0.0, 0.0, 0.0, 0.0, 0.0, 0.0, 0.0, 0.0, 0.0, 0.0, 0.0, 0.0, 0.0, 0.0, 0.0, 0.0, 0.0, 0.0, 0.0, 0.0, 0.0, 0.0, 0.0, 0.0]
twist: 
  twist: 
    linear: 
      x: -0.01691535317
      y: 0.0155802158945
      z: -0.0377595822771
    angular: 
      x: 0.00133836199529
      y: 0.00273325690068
      z: -0.000228663091548
  covariance: [0.0, 0.0, 0.0, 0.0, 0.0, 0.0, 0.0, 0.0, 0.0, 0.0, 0.0, 0.0, 0.0, 0.0, 0.0, 0.0, 0.0, 0.0, 0.0, 0.0, 0.0, 0.0, 0.0, 0.0, 0.0, 0.0, 0.0, 0.0, 0.0, 0.0, 0.0, 0.0, 0.0, 0.0, 0.0, 0.0]
---
header: 
  seq: 14487
  stamp: 
    secs: 488
    nsecs: 711813497
  frame_id: "map"
child_frame_id: "base_link"
pose: 
  pose: 
    position: 
      x: -0.0111209815368
      y: 0.00827630236745
      z: 0.00197544321418
    orientation: 
      x: -0.00447180729806
      y: -0.000369359175281
      z: 0.00187886435977
      w: -0.999988223915
  covariance: [0.0, 0.0, 0.0, 0.0, 0.0, 0.0, 0.0, 0.0, 0.0, 0.0, 0.0, 0.0, 0.0, 0.0, 0.0, 0.0, 0.0, 0.0, 0.0, 0.0, 0.0, 0.0, 0.0, 0.0, 0.0, 0.0, 0.0, 0.0, 0.0, 0.0, 0.0, 0.0, 0.0, 0.0, 0.0, 0.0]
twist: 
  twist: 
    linear: 
      x: -0.0163828454869
      y: 0.0145379133681
      z: -0.0379924504301
    angular: 
      x: 0.00175798428245
      y: -0.00151463155635
      z: -0.000244714319706
  covariance: [0.0, 0.0, 0.0, 0.0, 0.0, 0.0, 0.0, 0.0, 0.0, 0.0, 0.0, 0.0, 0.0, 0.0, 0.0, 0.0, 0.0, 0.0, 0.0, 0.0, 0.0, 0.0, 0.0, 0.0, 0.0, 0.0, 0.0, 0.0, 0.0, 0.0, 0.0, 0.0, 0.0, 0.0, 0.0, 0.0]
---
header: 
  seq: 14488
  stamp: 
    secs: 488
    nsecs: 739813497
  frame_id: "map"
child_frame_id: "base_link"
pose: 
  pose: 
    position: 
      x: -0.0108628412709
      y: 0.00786080863327
      z: 0.00160936592147
    orientation: 
      x: -0.00448857664005
      y: -0.000372618147415
      z: 0.0019033095319
      w: -0.999988055328
  covariance: [0.0, 0.0, 0.0, 0.0, 0.0, 0.0, 0.0, 0.0, 0.0, 0.0, 0.0, 0.0, 0.0, 0.0, 0.0, 0.0, 0.0, 0.0, 0.0, 0.0, 0.0, 0.0, 0.0, 0.0, 0.0, 0.0, 0.0, 0.0, 0.0, 0.0, 0.0, 0.0, 0.0, 0.0, 0.0, 0.0]
twist: 
  twist: 
    linear: 
      x: -0.0160520753933
      y: 0.0147851493464
      z: -0.0381244606409
    angular: 
      x: 0.000260544475168
      y: -0.000363557919627
      z: -0.00158465758432
  covariance: [0.0, 0.0, 0.0, 0.0, 0.0, 0.0, 0.0, 0.0, 0.0, 0.0, 0.0, 0.0, 0.0, 0.0, 0.0, 0.0, 0.0, 0.0, 0.0, 0.0, 0.0, 0.0, 0.0, 0.0, 0.0, 0.0, 0.0, 0.0, 0.0, 0.0, 0.0, 0.0, 0.0, 0.0, 0.0, 0.0]
---
header: 
  seq: 14489
  stamp: 
    secs: 488
    nsecs: 779813497
  frame_id: "map"
child_frame_id: "base_link"
pose: 
  pose: 
    position: 
      x: -0.0106587931514
      y: 0.00750066246837
      z: 0.000880609790329
    orientation: 
      x: -0.00446402247879
      y: -0.000384641194497
      z: 0.00191574285221
      w: -0.999988181768
  covariance: [0.0, 0.0, 0.0, 0.0, 0.0, 0.0, 0.0, 0.0, 0.0, 0.0, 0.0, 0.0, 0.0, 0.0, 0.0, 0.0, 0.0, 0.0, 0.0, 0.0, 0.0, 0.0, 0.0, 0.0, 0.0, 0.0, 0.0, 0.0, 0.0, 0.0, 0.0, 0.0, 0.0, 0.0, 0.0, 0.0]
twist: 
  twist: 
    linear: 
      x: -0.0160229735734
      y: 0.0149571158977
      z: -0.0387066692958
    angular: 
      x: -0.00214925291948
      y: 0.00103375047911
      z: 0.000107997388113
  covariance: [0.0, 0.0, 0.0, 0.0, 0.0, 0.0, 0.0, 0.0, 0.0, 0.0, 0.0, 0.0, 0.0, 0.0, 0.0, 0.0, 0.0, 0.0, 0.0, 0.0, 0.0, 0.0, 0.0, 0.0, 0.0, 0.0, 0.0, 0.0, 0.0, 0.0, 0.0, 0.0, 0.0, 0.0, 0.0, 0.0]
---
header: 
  seq: 14490
  stamp: 
    secs: 488
    nsecs: 811814013
  frame_id: "map"
child_frame_id: "base_link"
pose: 
  pose: 
    position: 
      x: -0.0106163145974
      y: 0.00735835591331
      z: 0.000116210954729
    orientation: 
      x: -0.00447818349062
      y: -0.000399010964934
      z: 0.00194086237393
      w: -0.999988013181
  covariance: [0.0, 0.0, 0.0, 0.0, 0.0, 0.0, 0.0, 0.0, 0.0, 0.0, 0.0, 0.0, 0.0, 0.0, 0.0, 0.0, 0.0, 0.0, 0.0, 0.0, 0.0, 0.0, 0.0, 0.0, 0.0, 0.0, 0.0, 0.0, 0.0, 0.0, 0.0, 0.0, 0.0, 0.0, 0.0, 0.0]
twist: 
  twist: 
    linear: 
      x: -0.0160884015755
      y: 0.0147852533311
      z: -0.0390941385983
    angular: 
      x: 0.00257418770343
      y: -0.000363567145541
      z: -0.00143943855073
  covariance: [0.0, 0.0, 0.0, 0.0, 0.0, 0.0, 0.0, 0.0, 0.0, 0.0, 0.0, 0.0, 0.0, 0.0, 0.0, 0.0, 0.0, 0.0, 0.0, 0.0, 0.0, 0.0, 0.0, 0.0, 0.0, 0.0, 0.0, 0.0, 0.0, 0.0, 0.0, 0.0, 0.0, 0.0, 0.0, 0.0]
---
header: 
  seq: 14491
  stamp: 
    secs: 488
    nsecs: 839814013
  frame_id: "map"
child_frame_id: "base_link"
pose: 
  pose: 
    position: 
      x: -0.0105742421001
      y: 0.00721771176904
      z: -0.000544582493603
    orientation: 
      x: -0.0044970682422
      y: -0.000431555905246
      z: 0.00196062924588
      w: -0.99998788674
  covariance: [0.0, 0.0, 0.0, 0.0, 0.0, 0.0, 0.0, 0.0, 0.0, 0.0, 0.0, 0.0, 0.0, 0.0, 0.0, 0.0, 0.0, 0.0, 0.0, 0.0, 0.0, 0.0, 0.0, 0.0, 0.0, 0.0, 0.0, 0.0, 0.0, 0.0, 0.0, 0.0, 0.0, 0.0, 0.0, 0.0]
twist: 
  twist: 
    linear: 
      x: -0.0165672421091
      y: 0.0144809940926
      z: -0.0394500614118
    angular: 
      x: -0.0010439271573
      y: 0.000533506332431
      z: 0.000270560907666
  covariance: [0.0, 0.0, 0.0, 0.0, 0.0, 0.0, 0.0, 0.0, 0.0, 0.0, 0.0, 0.0, 0.0, 0.0, 0.0, 0.0, 0.0, 0.0, 0.0, 0.0, 0.0, 0.0, 0.0, 0.0, 0.0, 0.0, 0.0, 0.0, 0.0, 0.0, 0.0, 0.0, 0.0, 0.0, 0.0, 0.0]
---
header: 
  seq: 14492
  stamp: 
    secs: 488
    nsecs: 879814013
  frame_id: "map"
child_frame_id: "base_link"
pose: 
  pose: 
    position: 
      x: -0.0106432912871
      y: 0.00716561544687
      z: -0.001582441153
    orientation: 
      x: -0.00450759655789
      y: -0.000437302858531
      z: 0.00195540303666
      w: -0.99998788674
  covariance: [0.0, 0.0, 0.0, 0.0, 0.0, 0.0, 0.0, 0.0, 0.0, 0.0, 0.0, 0.0, 0.0, 0.0, 0.0, 0.0, 0.0, 0.0, 0.0, 0.0, 0.0, 0.0, 0.0, 0.0, 0.0, 0.0, 0.0, 0.0, 0.0, 0.0, 0.0, 0.0, 0.0, 0.0, 0.0, 0.0]
twist: 
  twist: 
    linear: 
      x: -0.0163264535312
      y: 0.0146781637672
      z: -0.0394155316261
    angular: 
      x: -0.00109181355219
      y: 0.000842307868879
      z: -0.000452899723314
  covariance: [0.0, 0.0, 0.0, 0.0, 0.0, 0.0, 0.0, 0.0, 0.0, 0.0, 0.0, 0.0, 0.0, 0.0, 0.0, 0.0, 0.0, 0.0, 0.0, 0.0, 0.0, 0.0, 0.0, 0.0, 0.0, 0.0, 0.0, 0.0, 0.0, 0.0, 0.0, 0.0, 0.0, 0.0, 0.0, 0.0]
---
header: 
  seq: 14493
  stamp: 
    secs: 488
    nsecs: 911814529
  frame_id: "map"
child_frame_id: "base_link"
pose: 
  pose: 
    position: 
      x: -0.0107842516154
      y: 0.00724233826622
      z: -0.00249662599526
    orientation: 
      x: -0.00449491743584
      y: -0.000441660612177
      z: 0.00194705796066
      w: -0.99998788674
  covariance: [0.0, 0.0, 0.0, 0.0, 0.0, 0.0, 0.0, 0.0, 0.0, 0.0, 0.0, 0.0, 0.0, 0.0, 0.0, 0.0, 0.0, 0.0, 0.0, 0.0, 0.0, 0.0, 0.0, 0.0, 0.0, 0.0, 0.0, 0.0, 0.0, 0.0, 0.0, 0.0, 0.0, 0.0, 0.0, 0.0]
twist: 
  twist: 
    linear: 
      x: -0.0165798295692
      y: 0.0151955325314
      z: -0.0401743442402
    angular: 
      x: -0.0017707204679
      y: -0.00250130100176
      z: 0.00175468425732
  covariance: [0.0, 0.0, 0.0, 0.0, 0.0, 0.0, 0.0, 0.0, 0.0, 0.0, 0.0, 0.0, 0.0, 0.0, 0.0, 0.0, 0.0, 0.0, 0.0, 0.0, 0.0, 0.0, 0.0, 0.0, 0.0, 0.0, 0.0, 0.0, 0.0, 0.0, 0.0, 0.0, 0.0, 0.0, 0.0, 0.0]
---
header: 
  seq: 14494
  stamp: 
    secs: 488
    nsecs: 939814529
  frame_id: "map"
child_frame_id: "base_link"
pose: 
  pose: 
    position: 
      x: -0.0109112560749
      y: 0.00731078488752
      z: -0.0031660979148
    orientation: 
      x: -0.00448390476067
      y: -0.000431680534794
      z: 0.00194646790478
      w: -0.999987971034
  covariance: [0.0, 0.0, 0.0, 0.0, 0.0, 0.0, 0.0, 0.0, 0.0, 0.0, 0.0, 0.0, 0.0, 0.0, 0.0, 0.0, 0.0, 0.0, 0.0, 0.0, 0.0, 0.0, 0.0, 0.0, 0.0, 0.0, 0.0, 0.0, 0.0, 0.0, 0.0, 0.0, 0.0, 0.0, 0.0, 0.0]
twist: 
  twist: 
    linear: 
      x: -0.0165505533035
      y: 0.0145934666093
      z: -0.0400063900735
    angular: 
      x: -0.00183706998359
      y: -0.000651983136777
      z: 0.000161707808729
  covariance: [0.0, 0.0, 0.0, 0.0, 0.0, 0.0, 0.0, 0.0, 0.0, 0.0, 0.0, 0.0, 0.0, 0.0, 0.0, 0.0, 0.0, 0.0, 0.0, 0.0, 0.0, 0.0, 0.0, 0.0, 0.0, 0.0, 0.0, 0.0, 0.0, 0.0, 0.0, 0.0, 0.0, 0.0, 0.0, 0.0]
---
header: 
  seq: 14495
  stamp: 
    secs: 488
    nsecs: 979814529
  frame_id: "map"
child_frame_id: "base_link"
pose: 
  pose: 
    position: 
      x: -0.011173334904
      y: 0.00751280551776
      z: -0.00424050027505
    orientation: 
      x: -0.00448082013819
      y: -0.000405407901648
      z: 0.00190891506276
      w: -0.999988097474
  covariance: [0.0, 0.0, 0.0, 0.0, 0.0, 0.0, 0.0, 0.0, 0.0, 0.0, 0.0, 0.0, 0.0, 0.0, 0.0, 0.0, 0.0, 0.0, 0.0, 0.0, 0.0, 0.0, 0.0, 0.0, 0.0, 0.0, 0.0, 0.0, 0.0, 0.0, 0.0, 0.0, 0.0, 0.0, 0.0, 0.0]
twist: 
  twist: 
    linear: 
      x: -0.0162269633862
      y: 0.0145654030424
      z: -0.0405553892662
    angular: 
      x: -0.000180386516149
      y: -8.64632092998e-05
      z: 0.00147096510045
  covariance: [0.0, 0.0, 0.0, 0.0, 0.0, 0.0, 0.0, 0.0, 0.0, 0.0, 0.0, 0.0, 0.0, 0.0, 0.0, 0.0, 0.0, 0.0, 0.0, 0.0, 0.0, 0.0, 0.0, 0.0, 0.0, 0.0, 0.0, 0.0, 0.0, 0.0, 0.0, 0.0, 0.0, 0.0, 0.0, 0.0]
---
header: 
  seq: 14496
  stamp: 
    secs: 489
    nsecs:  11815046
  frame_id: "map"
child_frame_id: "base_link"
pose: 
  pose: 
    position: 
      x: -0.0112030487508
      y: 0.00722384406254
      z: -0.00490747345611
    orientation: 
      x: -0.00449872481091
      y: -0.000419551626682
      z: 0.00191119099258
      w: -0.999988013181
  covariance: [0.0, 0.0, 0.0, 0.0, 0.0, 0.0, 0.0, 0.0, 0.0, 0.0, 0.0, 0.0, 0.0, 0.0, 0.0, 0.0, 0.0, 0.0, 0.0, 0.0, 0.0, 0.0, 0.0, 0.0, 0.0, 0.0, 0.0, 0.0, 0.0, 0.0, 0.0, 0.0, 0.0, 0.0, 0.0, 0.0]
twist: 
  twist: 
    linear: 
      x: -0.0157328315361
      y: 0.0136026039196
      z: -0.0403567919644
    angular: 
      x: 0.00175707379822
      y: 2.04966327146e-05
      z: -0.000782124930993
  covariance: [0.0, 0.0, 0.0, 0.0, 0.0, 0.0, 0.0, 0.0, 0.0, 0.0, 0.0, 0.0, 0.0, 0.0, 0.0, 0.0, 0.0, 0.0, 0.0, 0.0, 0.0, 0.0, 0.0, 0.0, 0.0, 0.0, 0.0, 0.0, 0.0, 0.0, 0.0, 0.0, 0.0, 0.0, 0.0, 0.0]
---
header: 
  seq: 14497
  stamp: 
    secs: 489
    nsecs:  39815046
  frame_id: "map"
child_frame_id: "base_link"
pose: 
  pose: 
    position: 
      x: -0.01076389011
      y: 0.00596465589479
      z: -0.00490598008037
    orientation: 
      x: -0.00451279708387
      y: -0.000406012774779
      z: 0.0019189460127
      w: -0.999987928887
  covariance: [0.0, 0.0, 0.0, 0.0, 0.0, 0.0, 0.0, 0.0, 0.0, 0.0, 0.0, 0.0, 0.0, 0.0, 0.0, 0.0, 0.0, 0.0, 0.0, 0.0, 0.0, 0.0, 0.0, 0.0, 0.0, 0.0, 0.0, 0.0, 0.0, 0.0, 0.0, 0.0, 0.0, 0.0, 0.0, 0.0]
twist: 
  twist: 
    linear: 
      x: -0.0157079621865
      y: 0.0132433357822
      z: -0.0402060784045
    angular: 
      x: -0.000202651397558
      y: -0.00192299799528
      z: 0.00102560408413
  covariance: [0.0, 0.0, 0.0, 0.0, 0.0, 0.0, 0.0, 0.0, 0.0, 0.0, 0.0, 0.0, 0.0, 0.0, 0.0, 0.0, 0.0, 0.0, 0.0, 0.0, 0.0, 0.0, 0.0, 0.0, 0.0, 0.0, 0.0, 0.0, 0.0, 0.0, 0.0, 0.0, 0.0, 0.0, 0.0, 0.0]
---
header: 
  seq: 14498
  stamp: 
    secs: 489
    nsecs:  79815046
  frame_id: "map"
child_frame_id: "base_link"
pose: 
  pose: 
    position: 
      x: -0.0103418212384
      y: 0.00455931480974
      z: -0.00509866885841
    orientation: 
      x: -0.00450961417363
      y: -0.000420348136265
      z: 0.00192927199059
      w: -0.99998788674
  covariance: [0.0, 0.0, 0.0, 0.0, 0.0, 0.0, 0.0, 0.0, 0.0, 0.0, 0.0, 0.0, 0.0, 0.0, 0.0, 0.0, 0.0, 0.0, 0.0, 0.0, 0.0, 0.0, 0.0, 0.0, 0.0, 0.0, 0.0, 0.0, 0.0, 0.0, 0.0, 0.0, 0.0, 0.0, 0.0, 0.0]
twist: 
  twist: 
    linear: 
      x: -0.0150556544417
      y: 0.0123149304502
      z: -0.0402597339069
    angular: 
      x: -0.00283398944885
      y: 0.000880829116795
      z: -0.00129559321795
  covariance: [0.0, 0.0, 0.0, 0.0, 0.0, 0.0, 0.0, 0.0, 0.0, 0.0, 0.0, 0.0, 0.0, 0.0, 0.0, 0.0, 0.0, 0.0, 0.0, 0.0, 0.0, 0.0, 0.0, 0.0, 0.0, 0.0, 0.0, 0.0, 0.0, 0.0, 0.0, 0.0, 0.0, 0.0, 0.0, 0.0]
---
header: 
  seq: 14499
  stamp: 
    secs: 489
    nsecs: 111815562
  frame_id: "map"
child_frame_id: "base_link"
pose: 
  pose: 
    position: 
      x: -0.0101377880201
      y: 0.00367476791143
      z: -0.00537804001942
    orientation: 
      x: -0.00451784104089
      y: -0.00044324474099
      z: 0.00194891242199
      w: -0.999987802447
  covariance: [0.0, 0.0, 0.0, 0.0, 0.0, 0.0, 0.0, 0.0, 0.0, 0.0, 0.0, 0.0, 0.0, 0.0, 0.0, 0.0, 0.0, 0.0, 0.0, 0.0, 0.0, 0.0, 0.0, 0.0, 0.0, 0.0, 0.0, 0.0, 0.0, 0.0, 0.0, 0.0, 0.0, 0.0, 0.0, 0.0]
twist: 
  twist: 
    linear: 
      x: -0.0150205512068
      y: 0.0118204187528
      z: -0.0400588403714
    angular: 
      x: -0.00124433508608
      y: 0.00222156336531
      z: -0.000807940145023
  covariance: [0.0, 0.0, 0.0, 0.0, 0.0, 0.0, 0.0, 0.0, 0.0, 0.0, 0.0, 0.0, 0.0, 0.0, 0.0, 0.0, 0.0, 0.0, 0.0, 0.0, 0.0, 0.0, 0.0, 0.0, 0.0, 0.0, 0.0, 0.0, 0.0, 0.0, 0.0, 0.0, 0.0, 0.0, 0.0, 0.0]
---
header: 
  seq: 14500
  stamp: 
    secs: 489
    nsecs: 139815562
  frame_id: "map"
child_frame_id: "base_link"
pose: 
  pose: 
    position: 
      x: -0.00993925146759
      y: 0.00285209249705
      z: -0.00560901407152
    orientation: 
      x: -0.00452882095347
      y: -0.000446285240984
      z: 0.00195628812048
      w: -0.9999877603
  covariance: [0.0, 0.0, 0.0, 0.0, 0.0, 0.0, 0.0, 0.0, 0.0, 0.0, 0.0, 0.0, 0.0, 0.0, 0.0, 0.0, 0.0, 0.0, 0.0, 0.0, 0.0, 0.0, 0.0, 0.0, 0.0, 0.0, 0.0, 0.0, 0.0, 0.0, 0.0, 0.0, 0.0, 0.0, 0.0, 0.0]
twist: 
  twist: 
    linear: 
      x: -0.0149405367333
      y: 0.0110262471598
      z: -0.0393565108819
    angular: 
      x: -0.00019806814089
      y: -0.000896381854545
      z: -0.00196912093088
  covariance: [0.0, 0.0, 0.0, 0.0, 0.0, 0.0, 0.0, 0.0, 0.0, 0.0, 0.0, 0.0, 0.0, 0.0, 0.0, 0.0, 0.0, 0.0, 0.0, 0.0, 0.0, 0.0, 0.0, 0.0, 0.0, 0.0, 0.0, 0.0, 0.0, 0.0, 0.0, 0.0, 0.0, 0.0, 0.0, 0.0]
---
header: 
  seq: 14501
  stamp: 
    secs: 489
    nsecs: 179815562
  frame_id: "map"
child_frame_id: "base_link"
pose: 
  pose: 
    position: 
      x: -0.0098070576787
      y: 0.00193135172594
      z: -0.0062123592943
    orientation: 
      x: -0.00455352641533
      y: -0.000439508982633
      z: 0.00196897432188
      w: -0.999987633859
  covariance: [0.0, 0.0, 0.0, 0.0, 0.0, 0.0, 0.0, 0.0, 0.0, 0.0, 0.0, 0.0, 0.0, 0.0, 0.0, 0.0, 0.0, 0.0, 0.0, 0.0, 0.0, 0.0, 0.0, 0.0, 0.0, 0.0, 0.0, 0.0, 0.0, 0.0, 0.0, 0.0, 0.0, 0.0, 0.0, 0.0]
twist: 
  twist: 
    linear: 
      x: -0.0148107984382
      y: 0.0102901718888
      z: -0.0395239327199
    angular: 
      x: 0.00206687580794
      y: -0.000668317603413
      z: 0.000133590889163
  covariance: [0.0, 0.0, 0.0, 0.0, 0.0, 0.0, 0.0, 0.0, 0.0, 0.0, 0.0, 0.0, 0.0, 0.0, 0.0, 0.0, 0.0, 0.0, 0.0, 0.0, 0.0, 0.0, 0.0, 0.0, 0.0, 0.0, 0.0, 0.0, 0.0, 0.0, 0.0, 0.0, 0.0, 0.0, 0.0, 0.0]
---
header: 
  seq: 14502
  stamp: 
    secs: 489
    nsecs: 211816079
  frame_id: "map"
child_frame_id: "base_link"
pose: 
  pose: 
    position: 
      x: -0.00979585107416
      y: 0.00138055707794
      z: -0.00682980613783
    orientation: 
      x: -0.00455726579568
      y: -0.000431177242154
      z: 0.00196720415425
      w: -0.999987633859
  covariance: [0.0, 0.0, 0.0, 0.0, 0.0, 0.0, 0.0, 0.0, 0.0, 0.0, 0.0, 0.0, 0.0, 0.0, 0.0, 0.0, 0.0, 0.0, 0.0, 0.0, 0.0, 0.0, 0.0, 0.0, 0.0, 0.0, 0.0, 0.0, 0.0, 0.0, 0.0, 0.0, 0.0, 0.0, 0.0, 0.0]
twist: 
  twist: 
    linear: 
      x: -0.0145150347454
      y: 0.0103121992214
      z: -0.0392329271497
    angular: 
      x: -0.000590682437178
      y: -0.000307217356749
      z: 0.000840868800879
  covariance: [0.0, 0.0, 0.0, 0.0, 0.0, 0.0, 0.0, 0.0, 0.0, 0.0, 0.0, 0.0, 0.0, 0.0, 0.0, 0.0, 0.0, 0.0, 0.0, 0.0, 0.0, 0.0, 0.0, 0.0, 0.0, 0.0, 0.0, 0.0, 0.0, 0.0, 0.0, 0.0, 0.0, 0.0, 0.0, 0.0]
---
header: 
  seq: 14503
  stamp: 
    secs: 489
    nsecs: 239816079
  frame_id: "map"
child_frame_id: "base_link"
pose: 
  pose: 
    position: 
      x: -0.00976537819952
      y: 0.000874801771715
      z: -0.00736887706444
    orientation: 
      x: -0.00457001258318
      y: -0.000463235518075
      z: 0.001954475806
      w: -0.999987549565
  covariance: [0.0, 0.0, 0.0, 0.0, 0.0, 0.0, 0.0, 0.0, 0.0, 0.0, 0.0, 0.0, 0.0, 0.0, 0.0, 0.0, 0.0, 0.0, 0.0, 0.0, 0.0, 0.0, 0.0, 0.0, 0.0, 0.0, 0.0, 0.0, 0.0, 0.0, 0.0, 0.0, 0.0, 0.0, 0.0, 0.0]
twist: 
  twist: 
    linear: 
      x: -0.0138105686908
      y: 0.00996902275293
      z: -0.0390327867413
    angular: 
      x: -0.000602141139098
      y: 0.00226124748588
      z: -0.000503683346324
  covariance: [0.0, 0.0, 0.0, 0.0, 0.0, 0.0, 0.0, 0.0, 0.0, 0.0, 0.0, 0.0, 0.0, 0.0, 0.0, 0.0, 0.0, 0.0, 0.0, 0.0, 0.0, 0.0, 0.0, 0.0, 0.0, 0.0, 0.0, 0.0, 0.0, 0.0, 0.0, 0.0, 0.0, 0.0, 0.0, 0.0]
---
header: 
  seq: 14504
  stamp: 
    secs: 489
    nsecs: 279816079
  frame_id: "map"
child_frame_id: "base_link"
pose: 
  pose: 
    position: 
      x: -0.00982445199043
      y: 0.000354272458935
      z: -0.00827313680202
    orientation: 
      x: -0.00457985667112
      y: -0.000452182013144
      z: 0.00193462464035
      w: -0.999987591712
  covariance: [0.0, 0.0, 0.0, 0.0, 0.0, 0.0, 0.0, 0.0, 0.0, 0.0, 0.0, 0.0, 0.0, 0.0, 0.0, 0.0, 0.0, 0.0, 0.0, 0.0, 0.0, 0.0, 0.0, 0.0, 0.0, 0.0, 0.0, 0.0, 0.0, 0.0, 0.0, 0.0, 0.0, 0.0, 0.0, 0.0]
twist: 
  twist: 
    linear: 
      x: -0.0140220381539
      y: 0.00931331714461
      z: -0.0389740530456
    angular: 
      x: 0.00138109026011
      y: 0.000623604166321
      z: 0.000939527410083
  covariance: [0.0, 0.0, 0.0, 0.0, 0.0, 0.0, 0.0, 0.0, 0.0, 0.0, 0.0, 0.0, 0.0, 0.0, 0.0, 0.0, 0.0, 0.0, 0.0, 0.0, 0.0, 0.0, 0.0, 0.0, 0.0, 0.0, 0.0, 0.0, 0.0, 0.0, 0.0, 0.0, 0.0, 0.0, 0.0, 0.0]
---
header: 
  seq: 14505
  stamp: 
    secs: 489
    nsecs: 311816596
  frame_id: "map"
child_frame_id: "base_link"
pose: 
  pose: 
    position: 
      x: -0.00994202587754
      y: 5.6923890952e-05
      z: -0.00909318123013
    orientation: 
      x: -0.00460002871258
      y: -0.000462252640397
      z: 0.00192509945258
      w: -0.999987507419
  covariance: [0.0, 0.0, 0.0, 0.0, 0.0, 0.0, 0.0, 0.0, 0.0, 0.0, 0.0, 0.0, 0.0, 0.0, 0.0, 0.0, 0.0, 0.0, 0.0, 0.0, 0.0, 0.0, 0.0, 0.0, 0.0, 0.0, 0.0, 0.0, 0.0, 0.0, 0.0, 0.0, 0.0, 0.0, 0.0, 0.0]
twist: 
  twist: 
    linear: 
      x: -0.0136214123615
      y: 0.00880121203464
      z: -0.0392014390379
    angular: 
      x: 0.00248445640318
      y: 0.00041053359746
      z: 0.00140007096343
  covariance: [0.0, 0.0, 0.0, 0.0, 0.0, 0.0, 0.0, 0.0, 0.0, 0.0, 0.0, 0.0, 0.0, 0.0, 0.0, 0.0, 0.0, 0.0, 0.0, 0.0, 0.0, 0.0, 0.0, 0.0, 0.0, 0.0, 0.0, 0.0, 0.0, 0.0, 0.0, 0.0, 0.0, 0.0, 0.0, 0.0]
---
header: 
  seq: 14506
  stamp: 
    secs: 489
    nsecs: 339816596
  frame_id: "map"
child_frame_id: "base_link"
pose: 
  pose: 
    position: 
      x: -0.0100397691131
      y: -0.000213711726246
      z: -0.00981314945966
    orientation: 
      x: -0.00463961974985
      y: -0.000466958270178
      z: 0.00191409912512
      w: -0.999987296684
  covariance: [0.0, 0.0, 0.0, 0.0, 0.0, 0.0, 0.0, 0.0, 0.0, 0.0, 0.0, 0.0, 0.0, 0.0, 0.0, 0.0, 0.0, 0.0, 0.0, 0.0, 0.0, 0.0, 0.0, 0.0, 0.0, 0.0, 0.0, 0.0, 0.0, 0.0, 0.0, 0.0, 0.0, 0.0, 0.0, 0.0]
twist: 
  twist: 
    linear: 
      x: -0.0138501827606
      y: 0.00906812020186
      z: -0.0396077017664
    angular: 
      x: 0.00011240002641
      y: 0.00107138871681
      z: 0.000314988428727
  covariance: [0.0, 0.0, 0.0, 0.0, 0.0, 0.0, 0.0, 0.0, 0.0, 0.0, 0.0, 0.0, 0.0, 0.0, 0.0, 0.0, 0.0, 0.0, 0.0, 0.0, 0.0, 0.0, 0.0, 0.0, 0.0, 0.0, 0.0, 0.0, 0.0, 0.0, 0.0, 0.0, 0.0, 0.0, 0.0, 0.0]
---
header: 
  seq: 14507
  stamp: 
    secs: 489
    nsecs: 379816596
  frame_id: "map"
child_frame_id: "base_link"
pose: 
  pose: 
    position: 
      x: -0.0102712381631
      y: -0.000459122296888
      z: -0.0109169594944
    orientation: 
      x: -0.00467094440719
      y: -0.00046323189608
      z: 0.00192463583725
      w: -0.999987212391
  covariance: [0.0, 0.0, 0.0, 0.0, 0.0, 0.0, 0.0, 0.0, 0.0, 0.0, 0.0, 0.0, 0.0, 0.0, 0.0, 0.0, 0.0, 0.0, 0.0, 0.0, 0.0, 0.0, 0.0, 0.0, 0.0, 0.0, 0.0, 0.0, 0.0, 0.0, 0.0, 0.0, 0.0, 0.0, 0.0, 0.0]
twist: 
  twist: 
    linear: 
      x: -0.0139702904642
      y: 0.00816816506141
      z: -0.0400926547117
    angular: 
      x: 0.00162258662749
      y: -0.000253287347732
      z: -0.00136660260614
  covariance: [0.0, 0.0, 0.0, 0.0, 0.0, 0.0, 0.0, 0.0, 0.0, 0.0, 0.0, 0.0, 0.0, 0.0, 0.0, 0.0, 0.0, 0.0, 0.0, 0.0, 0.0, 0.0, 0.0, 0.0, 0.0, 0.0, 0.0, 0.0, 0.0, 0.0, 0.0, 0.0, 0.0, 0.0, 0.0, 0.0]
---
header: 
  seq: 14508
  stamp: 
    secs: 489
    nsecs: 411817112
  frame_id: "map"
child_frame_id: "base_link"
pose: 
  pose: 
    position: 
      x: -0.010273501277
      y: -0.000756466877647
      z: -0.0115054538473
    orientation: 
      x: -0.00467028652123
      y: -0.000468354384535
      z: 0.00191544782427
      w: -0.999987212391
  covariance: [0.0, 0.0, 0.0, 0.0, 0.0, 0.0, 0.0, 0.0, 0.0, 0.0, 0.0, 0.0, 0.0, 0.0, 0.0, 0.0, 0.0, 0.0, 0.0, 0.0, 0.0, 0.0, 0.0, 0.0, 0.0, 0.0, 0.0, 0.0, 0.0, 0.0, 0.0, 0.0, 0.0, 0.0, 0.0, 0.0]
twist: 
  twist: 
    linear: 
      x: -0.0137158622364
      y: 0.00723008399306
      z: -0.0407277416803
    angular: 
      x: -0.000126463157358
      y: 0.000190391147044
      z: 0.00159243203234
  covariance: [0.0, 0.0, 0.0, 0.0, 0.0, 0.0, 0.0, 0.0, 0.0, 0.0, 0.0, 0.0, 0.0, 0.0, 0.0, 0.0, 0.0, 0.0, 0.0, 0.0, 0.0, 0.0, 0.0, 0.0, 0.0, 0.0, 0.0, 0.0, 0.0, 0.0, 0.0, 0.0, 0.0, 0.0, 0.0, 0.0]
---
header: 
  seq: 14509
  stamp: 
    secs: 489
    nsecs: 439817112
  frame_id: "map"
child_frame_id: "base_link"
pose: 
  pose: 
    position: 
      x: -0.0098065789789
      y: -0.00137849920429
      z: -0.0113157834858
    orientation: 
      x: -0.00466397124403
      y: -0.000485335777854
      z: 0.00188986468723
      w: -0.999987254537
  covariance: [0.0, 0.0, 0.0, 0.0, 0.0, 0.0, 0.0, 0.0, 0.0, 0.0, 0.0, 0.0, 0.0, 0.0, 0.0, 0.0, 0.0, 0.0, 0.0, 0.0, 0.0, 0.0, 0.0, 0.0, 0.0, 0.0, 0.0, 0.0, 0.0, 0.0, 0.0, 0.0, 0.0, 0.0, 0.0, 0.0]
twist: 
  twist: 
    linear: 
      x: -0.0136130462666
      y: 0.00650101376994
      z: -0.0407496700894
    angular: 
      x: -8.67144262884e-06
      y: 0.00221429415978
      z: 0.000812559854239
  covariance: [0.0, 0.0, 0.0, 0.0, 0.0, 0.0, 0.0, 0.0, 0.0, 0.0, 0.0, 0.0, 0.0, 0.0, 0.0, 0.0, 0.0, 0.0, 0.0, 0.0, 0.0, 0.0, 0.0, 0.0, 0.0, 0.0, 0.0, 0.0, 0.0, 0.0, 0.0, 0.0, 0.0, 0.0, 0.0, 0.0]
---
header: 
  seq: 14510
  stamp: 
    secs: 489
    nsecs: 479817112
  frame_id: "map"
child_frame_id: "base_link"
pose: 
  pose: 
    position: 
      x: -0.00934677757323
      y: -0.00206238729879
      z: -0.0113628106192
    orientation: 
      x: -0.0046556164545
      y: -0.000478247040134
      z: 0.00186891770352
      w: -0.999987296684
  covariance: [0.0, 0.0, 0.0, 0.0, 0.0, 0.0, 0.0, 0.0, 0.0, 0.0, 0.0, 0.0, 0.0, 0.0, 0.0, 0.0, 0.0, 0.0, 0.0, 0.0, 0.0, 0.0, 0.0, 0.0, 0.0, 0.0, 0.0, 0.0, 0.0, 0.0, 0.0, 0.0, 0.0, 0.0, 0.0, 0.0]
twist: 
  twist: 
    linear: 
      x: -0.0132139057836
      y: 0.00625490727535
      z: -0.0404587795434
    angular: 
      x: -0.000941983424127
      y: 0.000280684209429
      z: 0.00131677777972
  covariance: [0.0, 0.0, 0.0, 0.0, 0.0, 0.0, 0.0, 0.0, 0.0, 0.0, 0.0, 0.0, 0.0, 0.0, 0.0, 0.0, 0.0, 0.0, 0.0, 0.0, 0.0, 0.0, 0.0, 0.0, 0.0, 0.0, 0.0, 0.0, 0.0, 0.0, 0.0, 0.0, 0.0, 0.0, 0.0, 0.0]
---
header: 
  seq: 14511
  stamp: 
    secs: 489
    nsecs: 511817629
  frame_id: "map"
child_frame_id: "base_link"
pose: 
  pose: 
    position: 
      x: -0.00909550115466
      y: -0.00247792596929
      z: -0.011666492559
    orientation: 
      x: -0.00465643667168
      y: -0.000485911181118
      z: 0.0018722894514
      w: -0.999987296684
  covariance: [0.0, 0.0, 0.0, 0.0, 0.0, 0.0, 0.0, 0.0, 0.0, 0.0, 0.0, 0.0, 0.0, 0.0, 0.0, 0.0, 0.0, 0.0, 0.0, 0.0, 0.0, 0.0, 0.0, 0.0, 0.0, 0.0, 0.0, 0.0, 0.0, 0.0, 0.0, 0.0, 0.0, 0.0, 0.0, 0.0]
twist: 
  twist: 
    linear: 
      x: -0.0123842272439
      y: 0.00573622800174
      z: -0.0406108965903
    angular: 
      x: -0.000874973717146
      y: -0.000565673690289
      z: -0.000590783893131
  covariance: [0.0, 0.0, 0.0, 0.0, 0.0, 0.0, 0.0, 0.0, 0.0, 0.0, 0.0, 0.0, 0.0, 0.0, 0.0, 0.0, 0.0, 0.0, 0.0, 0.0, 0.0, 0.0, 0.0, 0.0, 0.0, 0.0, 0.0, 0.0, 0.0, 0.0, 0.0, 0.0, 0.0, 0.0, 0.0, 0.0]
---
header: 
  seq: 14512
  stamp: 
    secs: 489
    nsecs: 539817629
  frame_id: "map"
child_frame_id: "base_link"
pose: 
  pose: 
    position: 
      x: -0.00885506719351
      y: -0.00286239990965
      z: -0.0119231194258
    orientation: 
      x: -0.00463775178836
      y: -0.000491201269151
      z: 0.00189749326681
      w: -0.999987380978
  covariance: [0.0, 0.0, 0.0, 0.0, 0.0, 0.0, 0.0, 0.0, 0.0, 0.0, 0.0, 0.0, 0.0, 0.0, 0.0, 0.0, 0.0, 0.0, 0.0, 0.0, 0.0, 0.0, 0.0, 0.0, 0.0, 0.0, 0.0, 0.0, 0.0, 0.0, 0.0, 0.0, 0.0, 0.0, 0.0, 0.0]
twist: 
  twist: 
    linear: 
      x: -0.0126749990059
      y: 0.00510551042691
      z: -0.0406114681189
    angular: 
      x: 0.000648226356134
      y: 0.00150489632506
      z: -0.00128952239174
  covariance: [0.0, 0.0, 0.0, 0.0, 0.0, 0.0, 0.0, 0.0, 0.0, 0.0, 0.0, 0.0, 0.0, 0.0, 0.0, 0.0, 0.0, 0.0, 0.0, 0.0, 0.0, 0.0, 0.0, 0.0, 0.0, 0.0, 0.0, 0.0, 0.0, 0.0, 0.0, 0.0, 0.0, 0.0, 0.0, 0.0]
---
header: 
  seq: 14513
  stamp: 
    secs: 489
    nsecs: 579817629
  frame_id: "map"
child_frame_id: "base_link"
pose: 
  pose: 
    position: 
      x: -0.00866031646729
      y: -0.00326927588321
      z: -0.0124665424228
    orientation: 
      x: -0.00466218164933
      y: -0.000523064451261
      z: 0.00189610242081
      w: -0.999987254537
  covariance: [0.0, 0.0, 0.0, 0.0, 0.0, 0.0, 0.0, 0.0, 0.0, 0.0, 0.0, 0.0, 0.0, 0.0, 0.0, 0.0, 0.0, 0.0, 0.0, 0.0, 0.0, 0.0, 0.0, 0.0, 0.0, 0.0, 0.0, 0.0, 0.0, 0.0, 0.0, 0.0, 0.0, 0.0, 0.0, 0.0]
twist: 
  twist: 
    linear: 
      x: -0.0119893086182
      y: 0.00485872150442
      z: -0.040567530742
    angular: 
      x: -0.000729639141355
      y: 0.00144652929157
      z: 0.000153141096234
  covariance: [0.0, 0.0, 0.0, 0.0, 0.0, 0.0, 0.0, 0.0, 0.0, 0.0, 0.0, 0.0, 0.0, 0.0, 0.0, 0.0, 0.0, 0.0, 0.0, 0.0, 0.0, 0.0, 0.0, 0.0, 0.0, 0.0, 0.0, 0.0, 0.0, 0.0, 0.0, 0.0, 0.0, 0.0, 0.0, 0.0]
---
header: 
  seq: 14514
  stamp: 
    secs: 489
    nsecs: 611818146
  frame_id: "map"
child_frame_id: "base_link"
pose: 
  pose: 
    position: 
      x: -0.00858077500015
      y: -0.00350463297218
      z: -0.0130194667727
    orientation: 
      x: -0.00466158895927
      y: -0.000538161254834
      z: 0.00189761970735
      w: -0.999987254537
  covariance: [0.0, 0.0, 0.0, 0.0, 0.0, 0.0, 0.0, 0.0, 0.0, 0.0, 0.0, 0.0, 0.0, 0.0, 0.0, 0.0, 0.0, 0.0, 0.0, 0.0, 0.0, 0.0, 0.0, 0.0, 0.0, 0.0, 0.0, 0.0, 0.0, 0.0, 0.0, 0.0, 0.0, 0.0, 0.0, 0.0]
twist: 
  twist: 
    linear: 
      x: -0.0113984388779
      y: 0.00466404313753
      z: -0.0405127188519
    angular: 
      x: -0.00066789315315
      y: 0.00204890570603
      z: 0.000540370703675
  covariance: [0.0, 0.0, 0.0, 0.0, 0.0, 0.0, 0.0, 0.0, 0.0, 0.0, 0.0, 0.0, 0.0, 0.0, 0.0, 0.0, 0.0, 0.0, 0.0, 0.0, 0.0, 0.0, 0.0, 0.0, 0.0, 0.0, 0.0, 0.0, 0.0, 0.0, 0.0, 0.0, 0.0, 0.0, 0.0, 0.0]
---
header: 
  seq: 14515
  stamp: 
    secs: 489
    nsecs: 639818146
  frame_id: "map"
child_frame_id: "base_link"
pose: 
  pose: 
    position: 
      x: -0.00849253404886
      y: -0.00370718142949
      z: -0.0134583218023
    orientation: 
      x: -0.00465747173901
      y: -0.0005336627373
      z: 0.00189614456766
      w: -0.999987212391
  covariance: [0.0, 0.0, 0.0, 0.0, 0.0, 0.0, 0.0, 0.0, 0.0, 0.0, 0.0, 0.0, 0.0, 0.0, 0.0, 0.0, 0.0, 0.0, 0.0, 0.0, 0.0, 0.0, 0.0, 0.0, 0.0, 0.0, 0.0, 0.0, 0.0, 0.0, 0.0, 0.0, 0.0, 0.0, 0.0, 0.0]
twist: 
  twist: 
    linear: 
      x: -0.0113847189265
      y: 0.00468806995878
      z: -0.0408652817724
    angular: 
      x: -0.00113443064038
      y: 0.00201260205358
      z: -0.000992743065581
  covariance: [0.0, 0.0, 0.0, 0.0, 0.0, 0.0, 0.0, 0.0, 0.0, 0.0, 0.0, 0.0, 0.0, 0.0, 0.0, 0.0, 0.0, 0.0, 0.0, 0.0, 0.0, 0.0, 0.0, 0.0, 0.0, 0.0, 0.0, 0.0, 0.0, 0.0, 0.0, 0.0, 0.0, 0.0, 0.0, 0.0]
---
header: 
  seq: 14516
  stamp: 
    secs: 489
    nsecs: 679818146
  frame_id: "map"
child_frame_id: "base_link"
pose: 
  pose: 
    position: 
      x: -0.00846804585308
      y: -0.00390370935202
      z: -0.0141817517579
    orientation: 
      x: -0.0046469063802
      y: -0.000536958094018
      z: 0.00194044090544
      w: -0.999987170244
  covariance: [0.0, 0.0, 0.0, 0.0, 0.0, 0.0, 0.0, 0.0, 0.0, 0.0, 0.0, 0.0, 0.0, 0.0, 0.0, 0.0, 0.0, 0.0, 0.0, 0.0, 0.0, 0.0, 0.0, 0.0, 0.0, 0.0, 0.0, 0.0, 0.0, 0.0, 0.0, 0.0, 0.0, 0.0, 0.0, 0.0]
twist: 
  twist: 
    linear: 
      x: -0.0110840914601
      y: 0.00392776198497
      z: -0.0406825112319
    angular: 
      x: 0.00263102748431
      y: -0.0028207837604
      z: -0.00364812044427
  covariance: [0.0, 0.0, 0.0, 0.0, 0.0, 0.0, 0.0, 0.0, 0.0, 0.0, 0.0, 0.0, 0.0, 0.0, 0.0, 0.0, 0.0, 0.0, 0.0, 0.0, 0.0, 0.0, 0.0, 0.0, 0.0, 0.0, 0.0, 0.0, 0.0, 0.0, 0.0, 0.0, 0.0, 0.0, 0.0, 0.0]
---
header: 
  seq: 14517
  stamp: 
    secs: 489
    nsecs: 711818663
  frame_id: "map"
child_frame_id: "base_link"
pose: 
  pose: 
    position: 
      x: -0.0085184648633
      y: -0.00400480488315
      z: -0.0148859508336
    orientation: 
      x: -0.00464172412883
      y: -0.000545396518707
      z: 0.00194111525502
      w: -0.999987254537
  covariance: [0.0, 0.0, 0.0, 0.0, 0.0, 0.0, 0.0, 0.0, 0.0, 0.0, 0.0, 0.0, 0.0, 0.0, 0.0, 0.0, 0.0, 0.0, 0.0, 0.0, 0.0, 0.0, 0.0, 0.0, 0.0, 0.0, 0.0, 0.0, 0.0, 0.0, 0.0, 0.0, 0.0, 0.0, 0.0, 0.0]
twist: 
  twist: 
    linear: 
      x: -0.0110071696238
      y: 0.00372350811822
      z: -0.0407914195655
    angular: 
      x: -0.0026439500507
      y: 0.0031581656076
      z: 0.00222390564159
  covariance: [0.0, 0.0, 0.0, 0.0, 0.0, 0.0, 0.0, 0.0, 0.0, 0.0, 0.0, 0.0, 0.0, 0.0, 0.0, 0.0, 0.0, 0.0, 0.0, 0.0, 0.0, 0.0, 0.0, 0.0, 0.0, 0.0, 0.0, 0.0, 0.0, 0.0, 0.0, 0.0, 0.0, 0.0, 0.0, 0.0]
---
header: 
  seq: 14518
  stamp: 
    secs: 489
    nsecs: 739818663
  frame_id: "map"
child_frame_id: "base_link"
pose: 
  pose: 
    position: 
      x: -0.00854832772166
      y: -0.00409272266552
      z: -0.0154051017016
    orientation: 
      x: -0.00465976281535
      y: -0.000550734845125
      z: 0.0019868867325
      w: -0.99998708595
  covariance: [0.0, 0.0, 0.0, 0.0, 0.0, 0.0, 0.0, 0.0, 0.0, 0.0, 0.0, 0.0, 0.0, 0.0, 0.0, 0.0, 0.0, 0.0, 0.0, 0.0, 0.0, 0.0, 0.0, 0.0, 0.0, 0.0, 0.0, 0.0, 0.0, 0.0, 0.0, 0.0, 0.0, 0.0, 0.0, 0.0]
twist: 
  twist: 
    linear: 
      x: -0.0102179324406
      y: 0.0033069598493
      z: -0.040822339752
    angular: 
      x: 0.00201171054505
      y: 0.000243625967414
      z: -0.00327304704115
  covariance: [0.0, 0.0, 0.0, 0.0, 0.0, 0.0, 0.0, 0.0, 0.0, 0.0, 0.0, 0.0, 0.0, 0.0, 0.0, 0.0, 0.0, 0.0, 0.0, 0.0, 0.0, 0.0, 0.0, 0.0, 0.0, 0.0, 0.0, 0.0, 0.0, 0.0, 0.0, 0.0, 0.0, 0.0, 0.0, 0.0]
---
header: 
  seq: 14519
  stamp: 
    secs: 489
    nsecs: 779818663
  frame_id: "map"
child_frame_id: "base_link"
pose: 
  pose: 
    position: 
      x: -0.00864201970398
      y: -0.00415319390595
      z: -0.0163153074682
    orientation: 
      x: -0.00468548424675
      y: -0.000560820124993
      z: 0.0020208570924
      w: -0.999986833069
  covariance: [0.0, 0.0, 0.0, 0.0, 0.0, 0.0, 0.0, 0.0, 0.0, 0.0, 0.0, 0.0, 0.0, 0.0, 0.0, 0.0, 0.0, 0.0, 0.0, 0.0, 0.0, 0.0, 0.0, 0.0, 0.0, 0.0, 0.0, 0.0, 0.0, 0.0, 0.0, 0.0, 0.0, 0.0, 0.0, 0.0]
twist: 
  twist: 
    linear: 
      x: -0.00978536812434
      y: 0.0030566581936
      z: -0.0412639727569
    angular: 
      x: -0.000942104612477
      y: 0.00149874144699
      z: -0.000103300320916
  covariance: [0.0, 0.0, 0.0, 0.0, 0.0, 0.0, 0.0, 0.0, 0.0, 0.0, 0.0, 0.0, 0.0, 0.0, 0.0, 0.0, 0.0, 0.0, 0.0, 0.0, 0.0, 0.0, 0.0, 0.0, 0.0, 0.0, 0.0, 0.0, 0.0, 0.0, 0.0, 0.0, 0.0, 0.0, 0.0, 0.0]
---
header: 
  seq: 14520
  stamp: 
    secs: 489
    nsecs: 811819180
  frame_id: "map"
child_frame_id: "base_link"
pose: 
  pose: 
    position: 
      x: -0.00846358761191
      y: -0.0042861350812
      z: -0.0167929325253
    orientation: 
      x: -0.00467882899595
      y: -0.000562674586327
      z: 0.00200366117821
      w: -0.999986917363
  covariance: [0.0, 0.0, 0.0, 0.0, 0.0, 0.0, 0.0, 0.0, 0.0, 0.0, 0.0, 0.0, 0.0, 0.0, 0.0, 0.0, 0.0, 0.0, 0.0, 0.0, 0.0, 0.0, 0.0, 0.0, 0.0, 0.0, 0.0, 0.0, 0.0, 0.0, 0.0, 0.0, 0.0, 0.0, 0.0, 0.0]
twist: 
  twist: 
    linear: 
      x: -0.00940183788841
      y: 0.00284932969437
      z: -0.0413142386703
    angular: 
      x: 0.000854377984069
      y: -0.000498683366459
      z: 0.00473635550588
  covariance: [0.0, 0.0, 0.0, 0.0, 0.0, 0.0, 0.0, 0.0, 0.0, 0.0, 0.0, 0.0, 0.0, 0.0, 0.0, 0.0, 0.0, 0.0, 0.0, 0.0, 0.0, 0.0, 0.0, 0.0, 0.0, 0.0, 0.0, 0.0, 0.0, 0.0, 0.0, 0.0, 0.0, 0.0, 0.0, 0.0]
---
header: 
  seq: 14521
  stamp: 
    secs: 489
    nsecs: 839819180
  frame_id: "map"
child_frame_id: "base_link"
pose: 
  pose: 
    position: 
      x: -0.00772907398641
      y: -0.0046312790364
      z: -0.016298154369
    orientation: 
      x: -0.00467010015313
      y: -0.000570059998348
      z: 0.00201015179288
      w: -0.999986917363
  covariance: [0.0, 0.0, 0.0, 0.0, 0.0, 0.0, 0.0, 0.0, 0.0, 0.0, 0.0, 0.0, 0.0, 0.0, 0.0, 0.0, 0.0, 0.0, 0.0, 0.0, 0.0, 0.0, 0.0, 0.0, 0.0, 0.0, 0.0, 0.0, 0.0, 0.0, 0.0, 0.0, 0.0, 0.0, 0.0, 0.0]
twist: 
  twist: 
    linear: 
      x: -0.0088394045846
      y: 0.00277394466498
      z: -0.0411726542887
    angular: 
      x: 0.00114803947508
      y: -0.00038455412141
      z: 3.43745341524e-05
  covariance: [0.0, 0.0, 0.0, 0.0, 0.0, 0.0, 0.0, 0.0, 0.0, 0.0, 0.0, 0.0, 0.0, 0.0, 0.0, 0.0, 0.0, 0.0, 0.0, 0.0, 0.0, 0.0, 0.0, 0.0, 0.0, 0.0, 0.0, 0.0, 0.0, 0.0, 0.0, 0.0, 0.0, 0.0, 0.0, 0.0]
---
header: 
  seq: 14522
  stamp: 
    secs: 489
    nsecs: 879819180
  frame_id: "map"
child_frame_id: "base_link"
pose: 
  pose: 
    position: 
      x: -0.00690237665549
      y: -0.00500188069418
      z: -0.0159745272249
    orientation: 
      x: -0.00468625276819
      y: -0.000576244225187
      z: 0.00202671550434
      w: -0.999986875216
  covariance: [0.0, 0.0, 0.0, 0.0, 0.0, 0.0, 0.0, 0.0, 0.0, 0.0, 0.0, 0.0, 0.0, 0.0, 0.0, 0.0, 0.0, 0.0, 0.0, 0.0, 0.0, 0.0, 0.0, 0.0, 0.0, 0.0, 0.0, 0.0, 0.0, 0.0, 0.0, 0.0, 0.0, 0.0, 0.0, 0.0]
twist: 
  twist: 
    linear: 
      x: -0.00840318792812
      y: 0.00239390169058
      z: -0.0408126981133
    angular: 
      x: 0.00143630360253
      y: 9.12204086489e-06
      z: -0.0036345301196
  covariance: [0.0, 0.0, 0.0, 0.0, 0.0, 0.0, 0.0, 0.0, 0.0, 0.0, 0.0, 0.0, 0.0, 0.0, 0.0, 0.0, 0.0, 0.0, 0.0, 0.0, 0.0, 0.0, 0.0, 0.0, 0.0, 0.0, 0.0, 0.0, 0.0, 0.0, 0.0, 0.0, 0.0, 0.0, 0.0, 0.0]
---
header: 
  seq: 14523
  stamp: 
    secs: 489
    nsecs: 911819698
  frame_id: "map"
child_frame_id: "base_link"
pose: 
  pose: 
    position: 
      x: -0.00640193279833
      y: -0.00522917928174
      z: -0.0159643944353
    orientation: 
      x: -0.00469194374519
      y: -0.000594788344623
      z: 0.00203691504168
      w: -0.999986790922
  covariance: [0.0, 0.0, 0.0, 0.0, 0.0, 0.0, 0.0, 0.0, 0.0, 0.0, 0.0, 0.0, 0.0, 0.0, 0.0, 0.0, 0.0, 0.0, 0.0, 0.0, 0.0, 0.0, 0.0, 0.0, 0.0, 0.0, 0.0, 0.0, 0.0, 0.0, 0.0, 0.0, 0.0, 0.0, 0.0, 0.0]
twist: 
  twist: 
    linear: 
      x: -0.00873666617938
      y: 0.00202535042125
      z: -0.0409179940988
    angular: 
      x: 0.00100714759901
      y: 0.00154339033179
      z: 0.000825547438581
  covariance: [0.0, 0.0, 0.0, 0.0, 0.0, 0.0, 0.0, 0.0, 0.0, 0.0, 0.0, 0.0, 0.0, 0.0, 0.0, 0.0, 0.0, 0.0, 0.0, 0.0, 0.0, 0.0, 0.0, 0.0, 0.0, 0.0, 0.0, 0.0, 0.0, 0.0, 0.0, 0.0, 0.0, 0.0, 0.0, 0.0]
---
header: 
  seq: 14524
  stamp: 
    secs: 489
    nsecs: 939819698
  frame_id: "map"
child_frame_id: "base_link"
pose: 
  pose: 
    position: 
      x: -0.00593622075394
      y: -0.00542814889923
      z: -0.0160943958908
    orientation: 
      x: -0.00468353215619
      y: -0.00058429608425
      z: 0.0020139028624
      w: -0.999986875216
  covariance: [0.0, 0.0, 0.0, 0.0, 0.0, 0.0, 0.0, 0.0, 0.0, 0.0, 0.0, 0.0, 0.0, 0.0, 0.0, 0.0, 0.0, 0.0, 0.0, 0.0, 0.0, 0.0, 0.0, 0.0, 0.0, 0.0, 0.0, 0.0, 0.0, 0.0, 0.0, 0.0, 0.0, 0.0, 0.0, 0.0]
twist: 
  twist: 
    linear: 
      x: -0.00816504307583
      y: 0.00186604273659
      z: -0.0405915413745
    angular: 
      x: 0.000297463528113
      y: -0.000641139573418
      z: 0.000618958612904
  covariance: [0.0, 0.0, 0.0, 0.0, 0.0, 0.0, 0.0, 0.0, 0.0, 0.0, 0.0, 0.0, 0.0, 0.0, 0.0, 0.0, 0.0, 0.0, 0.0, 0.0, 0.0, 0.0, 0.0, 0.0, 0.0, 0.0, 0.0, 0.0, 0.0, 0.0, 0.0, 0.0, 0.0, 0.0, 0.0, 0.0]
---
header: 
  seq: 14525
  stamp: 
    secs: 489
    nsecs: 979819698
  frame_id: "map"
child_frame_id: "base_link"
pose: 
  pose: 
    position: 
      x: -0.00544283725321
      y: -0.0056279390119
      z: -0.0166296940297
    orientation: 
      x: -0.00467007216499
      y: -0.000603744879204
      z: 0.00199405169675
      w: -0.999987001656
  covariance: [0.0, 0.0, 0.0, 0.0, 0.0, 0.0, 0.0, 0.0, 0.0, 0.0, 0.0, 0.0, 0.0, 0.0, 0.0, 0.0, 0.0, 0.0, 0.0, 0.0, 0.0, 0.0, 0.0, 0.0, 0.0, 0.0, 0.0, 0.0, 0.0, 0.0, 0.0, 0.0, 0.0, 0.0, 0.0, 0.0]
twist: 
  twist: 
    linear: 
      x: -0.00812502458112
      y: 0.00142445633186
      z: -0.0406374313455
    angular: 
      x: 0.00107561761979
      y: -0.00045077042887
      z: 0.001840879675
  covariance: [0.0, 0.0, 0.0, 0.0, 0.0, 0.0, 0.0, 0.0, 0.0, 0.0, 0.0, 0.0, 0.0, 0.0, 0.0, 0.0, 0.0, 0.0, 0.0, 0.0, 0.0, 0.0, 0.0, 0.0, 0.0, 0.0, 0.0, 0.0, 0.0, 0.0, 0.0, 0.0, 0.0, 0.0, 0.0, 0.0]
---
header: 
  seq: 14526
  stamp: 
    secs: 490
    nsecs:  11820215
  frame_id: "map"
child_frame_id: "base_link"
pose: 
  pose: 
    position: 
      x: -0.00483951577917
      y: -0.00557735050097
      z: -0.0170165635645
    orientation: 
      x: -0.00467167473305
      y: -0.000599330655367
      z: 0.0019799325025
      w: -0.99998695951
  covariance: [0.0, 0.0, 0.0, 0.0, 0.0, 0.0, 0.0, 0.0, 0.0, 0.0, 0.0, 0.0, 0.0, 0.0, 0.0, 0.0, 0.0, 0.0, 0.0, 0.0, 0.0, 0.0, 0.0, 0.0, 0.0, 0.0, 0.0, 0.0, 0.0, 0.0, 0.0, 0.0, 0.0, 0.0, 0.0, 0.0]
twist: 
  twist: 
    linear: 
      x: -0.00793634412263
      y: 0.00142664408093
      z: -0.0406556516598
    angular: 
      x: -2.55429768004e-07
      y: -9.62056219578e-05
      z: 0.0029254341498
  covariance: [0.0, 0.0, 0.0, 0.0, 0.0, 0.0, 0.0, 0.0, 0.0, 0.0, 0.0, 0.0, 0.0, 0.0, 0.0, 0.0, 0.0, 0.0, 0.0, 0.0, 0.0, 0.0, 0.0, 0.0, 0.0, 0.0, 0.0, 0.0, 0.0, 0.0, 0.0, 0.0, 0.0, 0.0, 0.0, 0.0]
---
header: 
  seq: 14527
  stamp: 
    secs: 490
    nsecs:  39820215
  frame_id: "map"
child_frame_id: "base_link"
pose: 
  pose: 
    position: 
      x: -0.00366030260921
      y: -0.00520417373627
      z: -0.0170327033848
    orientation: 
      x: -0.00470136241338
      y: -0.000615624198947
      z: 0.00195835331606
      w: -0.999986875216
  covariance: [0.0, 0.0, 0.0, 0.0, 0.0, 0.0, 0.0, 0.0, 0.0, 0.0, 0.0, 0.0, 0.0, 0.0, 0.0, 0.0, 0.0, 0.0, 0.0, 0.0, 0.0, 0.0, 0.0, 0.0, 0.0, 0.0, 0.0, 0.0, 0.0, 0.0, 0.0, 0.0, 0.0, 0.0, 0.0, 0.0]
twist: 
  twist: 
    linear: 
      x: -0.00715096734073
      y: 0.000910403958157
      z: -0.0401176372987
    angular: 
      x: 0.00115006405395
      y: 0.00153352809139
      z: 0.00200960040092
  covariance: [0.0, 0.0, 0.0, 0.0, 0.0, 0.0, 0.0, 0.0, 0.0, 0.0, 0.0, 0.0, 0.0, 0.0, 0.0, 0.0, 0.0, 0.0, 0.0, 0.0, 0.0, 0.0, 0.0, 0.0, 0.0, 0.0, 0.0, 0.0, 0.0, 0.0, 0.0, 0.0, 0.0, 0.0, 0.0, 0.0]
---
header: 
  seq: 14528
  stamp: 
    secs: 490
    nsecs:  79820215
  frame_id: "map"
child_frame_id: "base_link"
pose: 
  pose: 
    position: 
      x: -0.00227522943169
      y: -0.00474214553833
      z: -0.0173096433282
    orientation: 
      x: -0.00471155388355
      y: -0.000641624688575
      z: 0.00193184294835
      w: -0.999986833069
  covariance: [0.0, 0.0, 0.0, 0.0, 0.0, 0.0, 0.0, 0.0, 0.0, 0.0, 0.0, 0.0, 0.0, 0.0, 0.0, 0.0, 0.0, 0.0, 0.0, 0.0, 0.0, 0.0, 0.0, 0.0, 0.0, 0.0, 0.0, 0.0, 0.0, 0.0, 0.0, 0.0, 0.0, 0.0, 0.0, 0.0]
twist: 
  twist: 
    linear: 
      x: -0.00606447682889
      y: 0.000463077999093
      z: -0.0398370036562
    angular: 
      x: -0.000755130662583
      y: -0.000747655169107
      z: 0.00348393479362
  covariance: [0.0, 0.0, 0.0, 0.0, 0.0, 0.0, 0.0, 0.0, 0.0, 0.0, 0.0, 0.0, 0.0, 0.0, 0.0, 0.0, 0.0, 0.0, 0.0, 0.0, 0.0, 0.0, 0.0, 0.0, 0.0, 0.0, 0.0, 0.0, 0.0, 0.0, 0.0, 0.0, 0.0, 0.0, 0.0, 0.0]
---
header: 
  seq: 14529
  stamp: 
    secs: 490
    nsecs: 111820732
  frame_id: "map"
child_frame_id: "base_link"
pose: 
  pose: 
    position: 
      x: -0.00135356455576
      y: -0.00441050855443
      z: -0.0176763925701
    orientation: 
      x: -0.00471593863752
      y: -0.000642820111493
      z: 0.00193706915756
      w: -0.999986833069
  covariance: [0.0, 0.0, 0.0, 0.0, 0.0, 0.0, 0.0, 0.0, 0.0, 0.0, 0.0, 0.0, 0.0, 0.0, 0.0, 0.0, 0.0, 0.0, 0.0, 0.0, 0.0, 0.0, 0.0, 0.0, 0.0, 0.0, 0.0, 0.0, 0.0, 0.0, 0.0, 0.0, 0.0, 0.0, 0.0, 0.0]
twist: 
  twist: 
    linear: 
      x: -0.0053712731389
      y: 0.000330119635112
      z: -0.0392977763813
    angular: 
      x: -0.000182309566298
      y: -0.00250334921293
      z: -0.00152157468256
  covariance: [0.0, 0.0, 0.0, 0.0, 0.0, 0.0, 0.0, 0.0, 0.0, 0.0, 0.0, 0.0, 0.0, 0.0, 0.0, 0.0, 0.0, 0.0, 0.0, 0.0, 0.0, 0.0, 0.0, 0.0, 0.0, 0.0, 0.0, 0.0, 0.0, 0.0, 0.0, 0.0, 0.0, 0.0, 0.0, 0.0]
---
header: 
  seq: 14530
  stamp: 
    secs: 490
    nsecs: 139820732
  frame_id: "map"
child_frame_id: "base_link"
pose: 
  pose: 
    position: 
      x: -0.000498115201481
      y: -0.00409872084856
      z: -0.0179685372859
    orientation: 
      x: -0.00471278750205
      y: -0.000645432228284
      z: 0.00192585809586
      w: -0.999986833069
  covariance: [0.0, 0.0, 0.0, 0.0, 0.0, 0.0, 0.0, 0.0, 0.0, 0.0, 0.0, 0.0, 0.0, 0.0, 0.0, 0.0, 0.0, 0.0, 0.0, 0.0, 0.0, 0.0, 0.0, 0.0, 0.0, 0.0, 0.0, 0.0, 0.0, 0.0, 0.0, 0.0, 0.0, 0.0, 0.0, 0.0]
twist: 
  twist: 
    linear: 
      x: -0.00497930543765
      y: 2.13144274264e-05
      z: -0.0393388883435
    angular: 
      x: -0.00561805162579
      y: 0.000845706439577
      z: -0.000486435019411
  covariance: [0.0, 0.0, 0.0, 0.0, 0.0, 0.0, 0.0, 0.0, 0.0, 0.0, 0.0, 0.0, 0.0, 0.0, 0.0, 0.0, 0.0, 0.0, 0.0, 0.0, 0.0, 0.0, 0.0, 0.0, 0.0, 0.0, 0.0, 0.0, 0.0, 0.0, 0.0, 0.0, 0.0, 0.0, 0.0, 0.0]
---
header: 
  seq: 14531
  stamp: 
    secs: 490
    nsecs: 179820732
  frame_id: "map"
child_frame_id: "base_link"
pose: 
  pose: 
    position: 
      x: 0.000500915164594
      y: -0.00369744142517
      z: -0.0187831167132
    orientation: 
      x: -0.00471706310227
      y: -0.00069566995462
      z: 0.00192282352276
      w: -0.999986833069
  covariance: [0.0, 0.0, 0.0, 0.0, 0.0, 0.0, 0.0, 0.0, 0.0, 0.0, 0.0, 0.0, 0.0, 0.0, 0.0, 0.0, 0.0, 0.0, 0.0, 0.0, 0.0, 0.0, 0.0, 0.0, 0.0, 0.0, 0.0, 0.0, 0.0, 0.0, 0.0, 0.0, 0.0, 0.0, 0.0, 0.0]
twist: 
  twist: 
    linear: 
      x: -0.00412746644793
      y: -0.00014779379706
      z: -0.0395413304825
    angular: 
      x: -0.0035911668092
      y: 0.00182950217277
      z: 0.00118112156633
  covariance: [0.0, 0.0, 0.0, 0.0, 0.0, 0.0, 0.0, 0.0, 0.0, 0.0, 0.0, 0.0, 0.0, 0.0, 0.0, 0.0, 0.0, 0.0, 0.0, 0.0, 0.0, 0.0, 0.0, 0.0, 0.0, 0.0, 0.0, 0.0, 0.0, 0.0, 0.0, 0.0, 0.0, 0.0, 0.0, 0.0]
---
header: 
  seq: 14532
  stamp: 
    secs: 490
    nsecs: 211821250
  frame_id: "map"
child_frame_id: "base_link"
pose: 
  pose: 
    position: 
      x: 0.00115900021046
      y: -0.0034129077103
      z: -0.0195470191538
    orientation: 
      x: -0.00469844703684
      y: -0.000721320592478
      z: 0.00192071618034
      w: -0.999986917363
  covariance: [0.0, 0.0, 0.0, 0.0, 0.0, 0.0, 0.0, 0.0, 0.0, 0.0, 0.0, 0.0, 0.0, 0.0, 0.0, 0.0, 0.0, 0.0, 0.0, 0.0, 0.0, 0.0, 0.0, 0.0, 0.0, 0.0, 0.0, 0.0, 0.0, 0.0, 0.0, 0.0, 0.0, 0.0, 0.0, 0.0]
twist: 
  twist: 
    linear: 
      x: -0.00371574029593
      y: -0.000410786646976
      z: -0.0398627319432
    angular: 
      x: 0.00040946318768
      y: 0.00122076051775
      z: -4.674581578e-05
  covariance: [0.0, 0.0, 0.0, 0.0, 0.0, 0.0, 0.0, 0.0, 0.0, 0.0, 0.0, 0.0, 0.0, 0.0, 0.0, 0.0, 0.0, 0.0, 0.0, 0.0, 0.0, 0.0, 0.0, 0.0, 0.0, 0.0, 0.0, 0.0, 0.0, 0.0, 0.0, 0.0, 0.0, 0.0, 0.0, 0.0]
---
header: 
  seq: 14533
  stamp: 
    secs: 490
    nsecs: 239821250
  frame_id: "map"
child_frame_id: "base_link"
pose: 
  pose: 
    position: 
      x: 0.00177269149572
      y: -0.00314925913699
      z: -0.0199886579067
    orientation: 
      x: -0.00469099609964
      y: -0.000718933533273
      z: 0.00193740633235
      w: -0.999986917363
  covariance: [0.0, 0.0, 0.0, 0.0, 0.0, 0.0, 0.0, 0.0, 0.0, 0.0, 0.0, 0.0, 0.0, 0.0, 0.0, 0.0, 0.0, 0.0, 0.0, 0.0, 0.0, 0.0, 0.0, 0.0, 0.0, 0.0, 0.0, 0.0, 0.0, 0.0, 0.0, 0.0, 0.0, 0.0, 0.0, 0.0]
twist: 
  twist: 
    linear: 
      x: -0.00304616652927
      y: -0.000880620805576
      z: -0.0400132324289
    angular: 
      x: -0.000705493148416
      y: 0.000541132874787
      z: 0.000326958834194
  covariance: [0.0, 0.0, 0.0, 0.0, 0.0, 0.0, 0.0, 0.0, 0.0, 0.0, 0.0, 0.0, 0.0, 0.0, 0.0, 0.0, 0.0, 0.0, 0.0, 0.0, 0.0, 0.0, 0.0, 0.0, 0.0, 0.0, 0.0, 0.0, 0.0, 0.0, 0.0, 0.0, 0.0, 0.0, 0.0, 0.0]
---
header: 
  seq: 14534
  stamp: 
    secs: 490
    nsecs: 279821250
  frame_id: "map"
child_frame_id: "base_link"
pose: 
  pose: 
    position: 
      x: 0.00248406385072
      y: -0.00280963466503
      z: -0.0208009406924
    orientation: 
      x: -0.0047052534236
      y: -0.000757656114979
      z: 0.00192733323555
      w: -0.999986790922
  covariance: [0.0, 0.0, 0.0, 0.0, 0.0, 0.0, 0.0, 0.0, 0.0, 0.0, 0.0, 0.0, 0.0, 0.0, 0.0, 0.0, 0.0, 0.0, 0.0, 0.0, 0.0, 0.0, 0.0, 0.0, 0.0, 0.0, 0.0, 0.0, 0.0, 0.0, 0.0, 0.0, 0.0, 0.0, 0.0, 0.0]
twist: 
  twist: 
    linear: 
      x: -0.00277127546674
      y: -0.000632728472467
      z: -0.0400595381785
    angular: 
      x: 0.00301071582362
      y: 0.00163089949638
      z: -0.000693488051184
  covariance: [0.0, 0.0, 0.0, 0.0, 0.0, 0.0, 0.0, 0.0, 0.0, 0.0, 0.0, 0.0, 0.0, 0.0, 0.0, 0.0, 0.0, 0.0, 0.0, 0.0, 0.0, 0.0, 0.0, 0.0, 0.0, 0.0, 0.0, 0.0, 0.0, 0.0, 0.0, 0.0, 0.0, 0.0, 0.0, 0.0]
---
header: 
  seq: 14535
  stamp: 
    secs: 490
    nsecs: 311821767
  frame_id: "map"
child_frame_id: "base_link"
pose: 
  pose: 
    position: 
      x: 0.00294928485528
      y: -0.00255449838005
      z: -0.0214132592082
    orientation: 
      x: -0.00472436981822
      y: -0.000765480776186
      z: 0.00192366645973
      w: -0.999986748775
  covariance: [0.0, 0.0, 0.0, 0.0, 0.0, 0.0, 0.0, 0.0, 0.0, 0.0, 0.0, 0.0, 0.0, 0.0, 0.0, 0.0, 0.0, 0.0, 0.0, 0.0, 0.0, 0.0, 0.0, 0.0, 0.0, 0.0, 0.0, 0.0, 0.0, 0.0, 0.0, 0.0, 0.0, 0.0, 0.0, 0.0]
twist: 
  twist: 
    linear: 
      x: -0.00221669578123
      y: -0.000201939609038
      z: -0.0392348514611
    angular: 
      x: 0.0010748738423
      y: 1.22715646285e-05
      z: 0.000881572603248
  covariance: [0.0, 0.0, 0.0, 0.0, 0.0, 0.0, 0.0, 0.0, 0.0, 0.0, 0.0, 0.0, 0.0, 0.0, 0.0, 0.0, 0.0, 0.0, 0.0, 0.0, 0.0, 0.0, 0.0, 0.0, 0.0, 0.0, 0.0, 0.0, 0.0, 0.0, 0.0, 0.0, 0.0, 0.0, 0.0, 0.0]
---
header: 
  seq: 14536
  stamp: 
    secs: 490
    nsecs: 339821767
  frame_id: "map"
child_frame_id: "base_link"
pose: 
  pose: 
    position: 
      x: 0.00338325160556
      y: -0.00230202078819
      z: -0.0219261944294
    orientation: 
      x: -0.00471778140969
      y: -0.000761147224052
      z: 0.00192703820762
      w: -0.999986748775
  covariance: [0.0, 0.0, 0.0, 0.0, 0.0, 0.0, 0.0, 0.0, 0.0, 0.0, 0.0, 0.0, 0.0, 0.0, 0.0, 0.0, 0.0, 0.0, 0.0, 0.0, 0.0, 0.0, 0.0, 0.0, 0.0, 0.0, 0.0, 0.0, 0.0, 0.0, 0.0, 0.0, 0.0, 0.0, 0.0, 0.0]
twist: 
  twist: 
    linear: 
      x: -0.00161040059917
      y: -0.000227002131868
      z: -0.0397287914151
    angular: 
      x: -0.00214226148091
      y: 0.000390506174881
      z: 0.000872324337251
  covariance: [0.0, 0.0, 0.0, 0.0, 0.0, 0.0, 0.0, 0.0, 0.0, 0.0, 0.0, 0.0, 0.0, 0.0, 0.0, 0.0, 0.0, 0.0, 0.0, 0.0, 0.0, 0.0, 0.0, 0.0, 0.0, 0.0, 0.0, 0.0, 0.0, 0.0, 0.0, 0.0, 0.0, 0.0, 0.0, 0.0]
---
header: 
  seq: 14537
  stamp: 
    secs: 490
    nsecs: 379821767
  frame_id: "map"
child_frame_id: "base_link"
pose: 
  pose: 
    position: 
      x: 0.00389693817124
      y: -0.00198229798116
      z: -0.0229122005403
    orientation: 
      x: -0.00471975391513
      y: -0.000772354499124
      z: 0.00192071618034
      w: -0.999986748775
  covariance: [0.0, 0.0, 0.0, 0.0, 0.0, 0.0, 0.0, 0.0, 0.0, 0.0, 0.0, 0.0, 0.0, 0.0, 0.0, 0.0, 0.0, 0.0, 0.0, 0.0, 0.0, 0.0, 0.0, 0.0, 0.0, 0.0, 0.0, 0.0, 0.0, 0.0, 0.0, 0.0, 0.0, 0.0, 0.0, 0.0]
twist: 
  twist: 
    linear: 
      x: -0.00114142572171
      y: -0.000933109028749
      z: -0.0396911524623
    angular: 
      x: 0.00241238274612
      y: 0.000467052275781
      z: 0.00178121344652
  covariance: [0.0, 0.0, 0.0, 0.0, 0.0, 0.0, 0.0, 0.0, 0.0, 0.0, 0.0, 0.0, 0.0, 0.0, 0.0, 0.0, 0.0, 0.0, 0.0, 0.0, 0.0, 0.0, 0.0, 0.0, 0.0, 0.0, 0.0, 0.0, 0.0, 0.0, 0.0, 0.0, 0.0, 0.0, 0.0, 0.0]
---
header: 
  seq: 14538
  stamp: 
    secs: 490
    nsecs: 411822285
  frame_id: "map"
child_frame_id: "base_link"
pose: 
  pose: 
    position: 
      x: 0.00417974870652
      y: -0.00186661491171
      z: -0.0234292186797
    orientation: 
      x: -0.00472254054621
      y: -0.000801394665565
      z: 0.00191039020245
      w: -0.999986706628
  covariance: [0.0, 0.0, 0.0, 0.0, 0.0, 0.0, 0.0, 0.0, 0.0, 0.0, 0.0, 0.0, 0.0, 0.0, 0.0, 0.0, 0.0, 0.0, 0.0, 0.0, 0.0, 0.0, 0.0, 0.0, 0.0, 0.0, 0.0, 0.0, 0.0, 0.0, 0.0, 0.0, 0.0, 0.0, 0.0, 0.0]
twist: 
  twist: 
    linear: 
      x: -0.00039504146314
      y: -0.00108131290632
      z: -0.0396930918011
    angular: 
      x: -0.00130949961022
      y: 0.00553176924586
      z: 0.00078644946916
  covariance: [0.0, 0.0, 0.0, 0.0, 0.0, 0.0, 0.0, 0.0, 0.0, 0.0, 0.0, 0.0, 0.0, 0.0, 0.0, 0.0, 0.0, 0.0, 0.0, 0.0, 0.0, 0.0, 0.0, 0.0, 0.0, 0.0, 0.0, 0.0, 0.0, 0.0, 0.0, 0.0, 0.0, 0.0, 0.0, 0.0]
---
header: 
  seq: 14539
  stamp: 
    secs: 490
    nsecs: 439822285
  frame_id: "map"
child_frame_id: "base_link"
pose: 
  pose: 
    position: 
      x: 0.00431830016896
      y: -0.00192775938194
      z: -0.0231166407466
    orientation: 
      x: -0.00474298390801
      y: -0.000812015506754
      z: 0.00190411032203
      w: -0.999986664482
