header: 
  seq: 341
  stamp: 
    secs: 16
    nsecs: 784000000
  frame_id: "map"
child_frame_id: "base_link"
pose: 
  pose: 
    position: 
      x: 0.00804946478456
      y: -0.00704099284485
      z: -0.00641353754327
    orientation: 
      x: -0.000990547519674
      y: 0.000663731266266
      z: 0.000983328122608
      w: -0.999998844921
  covariance: [0.0, 0.0, 0.0, 0.0, 0.0, 0.0, 0.0, 0.0, 0.0, 0.0, 0.0, 0.0, 0.0, 0.0, 0.0, 0.0, 0.0, 0.0, 0.0, 0.0, 0.0, 0.0, 0.0, 0.0, 0.0, 0.0, 0.0, 0.0, 0.0, 0.0, 0.0, 0.0, 0.0, 0.0, 0.0, 0.0]
twist: 
  twist: 
    linear: 
      x: 0.00073772952547
      y: 0.00892964847633
      z: -0.0138900549052
    angular: 
      x: -0.000449911603937
      y: 2.41643429035e-05
      z: 8.01398418844e-05
  covariance: [0.0, 0.0, 0.0, 0.0, 0.0, 0.0, 0.0, 0.0, 0.0, 0.0, 0.0, 0.0, 0.0, 0.0, 0.0, 0.0, 0.0, 0.0, 0.0, 0.0, 0.0, 0.0, 0.0, 0.0, 0.0, 0.0, 0.0, 0.0, 0.0, 0.0, 0.0, 0.0, 0.0, 0.0, 0.0, 0.0]
---
header: 
  seq: 342
  stamp: 
    secs: 16
    nsecs: 816000000
  frame_id: "map"
child_frame_id: "base_link"
pose: 
  pose: 
    position: 
      x: 0.00800444092602
      y: -0.00675268704072
      z: -0.0060366531834
    orientation: 
      x: -0.000984766116279
      y: 0.000670129396593
      z: 0.000964783509263
      w: -0.999998844921
  covariance: [0.0, 0.0, 0.0, 0.0, 0.0, 0.0, 0.0, 0.0, 0.0, 0.0, 0.0, 0.0, 0.0, 0.0, 0.0, 0.0, 0.0, 0.0, 0.0, 0.0, 0.0, 0.0, 0.0, 0.0, 0.0, 0.0, 0.0, 0.0, 0.0, 0.0, 0.0, 0.0, 0.0, 0.0, 0.0, 0.0]
twist: 
  twist: 
    linear: 
      x: 0.000760266894946
      y: 0.00947496038139
      z: -0.0139050692258
    angular: 
      x: 0.000772855011746
      y: 0.00269884523004
      z: 0.000446212827228
  covariance: [0.0, 0.0, 0.0, 0.0, 0.0, 0.0, 0.0, 0.0, 0.0, 0.0, 0.0, 0.0, 0.0, 0.0, 0.0, 0.0, 0.0, 0.0, 0.0, 0.0, 0.0, 0.0, 0.0, 0.0, 0.0, 0.0, 0.0, 0.0, 0.0, 0.0, 0.0, 0.0, 0.0, 0.0, 0.0, 0.0]
---
header: 
  seq: 343
  stamp: 
    secs: 16
    nsecs: 852000000
  frame_id: "map"
child_frame_id: "base_link"
pose: 
  pose: 
    position: 
      x: 0.00797310471535
      y: -0.00648962985724
      z: -0.00569260492921
    orientation: 
      x: -0.000983569571778
      y: 0.000670825282632
      z: 0.000947376860828
      w: -0.999998887068
  covariance: [0.0, 0.0, 0.0, 0.0, 0.0, 0.0, 0.0, 0.0, 0.0, 0.0, 0.0, 0.0, 0.0, 0.0, 0.0, 0.0, 0.0, 0.0, 0.0, 0.0, 0.0, 0.0, 0.0, 0.0, 0.0, 0.0, 0.0, 0.0, 0.0, 0.0, 0.0, 0.0, 0.0, 0.0, 0.0, 0.0]
twist: 
  twist: 
    linear: 
      x: 0.00114181668601
      y: 0.00985433065497
      z: -0.0142195621656
    angular: 
      x: 0.000670423381962
      y: 0.00136768294033
      z: 0.00147146661766
  covariance: [0.0, 0.0, 0.0, 0.0, 0.0, 0.0, 0.0, 0.0, 0.0, 0.0, 0.0, 0.0, 0.0, 0.0, 0.0, 0.0, 0.0, 0.0, 0.0, 0.0, 0.0, 0.0, 0.0, 0.0, 0.0, 0.0, 0.0, 0.0, 0.0, 0.0, 0.0, 0.0, 0.0, 0.0, 0.0, 0.0]
---
header: 
  seq: 344
  stamp: 
    secs: 16
    nsecs: 884000000
  frame_id: "map"
child_frame_id: "base_link"
pose: 
  pose: 
    position: 
      x: 0.00795518327504
      y: -0.00610321108252
      z: -0.00539229251444
    orientation: 
      x: -0.000972466768617
      y: 0.000675307573218
      z: 0.000946449630161
      w: -0.999998887068
  covariance: [0.0, 0.0, 0.0, 0.0, 0.0, 0.0, 0.0, 0.0, 0.0, 0.0, 0.0, 0.0, 0.0, 0.0, 0.0, 0.0, 0.0, 0.0, 0.0, 0.0, 0.0, 0.0, 0.0, 0.0, 0.0, 0.0, 0.0, 0.0, 0.0, 0.0, 0.0, 0.0, 0.0, 0.0, 0.0, 0.0]
twist: 
  twist: 
    linear: 
      x: 0.000924259574884
      y: 0.00957894836501
      z: -0.0138651148061
    angular: 
      x: -5.87146787439e-05
      y: 0.000228518663789
      z: -0.000159173680004
  covariance: [0.0, 0.0, 0.0, 0.0, 0.0, 0.0, 0.0, 0.0, 0.0, 0.0, 0.0, 0.0, 0.0, 0.0, 0.0, 0.0, 0.0, 0.0, 0.0, 0.0, 0.0, 0.0, 0.0, 0.0, 0.0, 0.0, 0.0, 0.0, 0.0, 0.0, 0.0, 0.0, 0.0, 0.0, 0.0, 0.0]
---
header: 
  seq: 345
  stamp: 
    secs: 16
    nsecs: 916000000
  frame_id: "map"
child_frame_id: "base_link"
pose: 
  pose: 
    position: 
      x: 0.00793406181037
      y: -0.0057941977866
      z: -0.00526875350624
    orientation: 
      x: -0.000974532602159
      y: 0.000683588790985
      z: 0.000950917196103
      w: -0.999998887068
  covariance: [0.0, 0.0, 0.0, 0.0, 0.0, 0.0, 0.0, 0.0, 0.0, 0.0, 0.0, 0.0, 0.0, 0.0, 0.0, 0.0, 0.0, 0.0, 0.0, 0.0, 0.0, 0.0, 0.0, 0.0, 0.0, 0.0, 0.0, 0.0, 0.0, 0.0, 0.0, 0.0, 0.0, 0.0, 0.0, 0.0]
twist: 
  twist: 
    linear: 
      x: 0.000526785899835
      y: 0.00990945058145
      z: -0.0137006223148
    angular: 
      x: -0.000407949410146
      y: 0.000399753043894
      z: 0.000335091084708
  covariance: [0.0, 0.0, 0.0, 0.0, 0.0, 0.0, 0.0, 0.0, 0.0, 0.0, 0.0, 0.0, 0.0, 0.0, 0.0, 0.0, 0.0, 0.0, 0.0, 0.0, 0.0, 0.0, 0.0, 0.0, 0.0, 0.0, 0.0, 0.0, 0.0, 0.0, 0.0, 0.0, 0.0, 0.0, 0.0, 0.0]
---
header: 
  seq: 346
  stamp: 
    secs: 16
    nsecs: 952000000
  frame_id: "map"
child_frame_id: "base_link"
pose: 
  pose: 
    position: 
      x: 0.00791241694242
      y: -0.00538156600669
      z: -0.00506263645366
    orientation: 
      x: -0.000981212517506
      y: 0.000687467813643
      z: 0.000915176668566
      w: -0.999998887068
  covariance: [0.0, 0.0, 0.0, 0.0, 0.0, 0.0, 0.0, 0.0, 0.0, 0.0, 0.0, 0.0, 0.0, 0.0, 0.0, 0.0, 0.0, 0.0, 0.0, 0.0, 0.0, 0.0, 0.0, 0.0, 0.0, 0.0, 0.0, 0.0, 0.0, 0.0, 0.0, 0.0, 0.0, 0.0, 0.0, 0.0]
twist: 
  twist: 
    linear: 
      x: 0.000843221278167
      y: 0.010945481107
      z: -0.013821878699
    angular: 
      x: 0.000467111065518
      y: -0.00184688915033
      z: 0.000116261449875
  covariance: [0.0, 0.0, 0.0, 0.0, 0.0, 0.0, 0.0, 0.0, 0.0, 0.0, 0.0, 0.0, 0.0, 0.0, 0.0, 0.0, 0.0, 0.0, 0.0, 0.0, 0.0, 0.0, 0.0, 0.0, 0.0, 0.0, 0.0, 0.0, 0.0, 0.0, 0.0, 0.0, 0.0, 0.0, 0.0, 0.0]
---
header: 
  seq: 347
  stamp: 
    secs: 16
    nsecs: 984000000
  frame_id: "map"
child_frame_id: "base_link"
pose: 
  pose: 
    position: 
      x: 0.00789776444435
      y: -0.00506734987721
      z: -0.0048790993169
    orientation: 
      x: -0.000987592579018
      y: 0.000701352648367
      z: 0.00090202685183
      w: -0.999998887068
  covariance: [0.0, 0.0, 0.0, 0.0, 0.0, 0.0, 0.0, 0.0, 0.0, 0.0, 0.0, 0.0, 0.0, 0.0, 0.0, 0.0, 0.0, 0.0, 0.0, 0.0, 0.0, 0.0, 0.0, 0.0, 0.0, 0.0, 0.0, 0.0, 0.0, 0.0, 0.0, 0.0, 0.0, 0.0, 0.0, 0.0]
twist: 
  twist: 
    linear: 
      x: 0.000671457764224
      y: 0.0113694619402
      z: -0.0136078559947
    angular: 
      x: 0.000450894760434
      y: 0.000303212320432
      z: 0.00121971499175
  covariance: [0.0, 0.0, 0.0, 0.0, 0.0, 0.0, 0.0, 0.0, 0.0, 0.0, 0.0, 0.0, 0.0, 0.0, 0.0, 0.0, 0.0, 0.0, 0.0, 0.0, 0.0, 0.0, 0.0, 0.0, 0.0, 0.0, 0.0, 0.0, 0.0, 0.0, 0.0, 0.0, 0.0, 0.0, 0.0, 0.0]
---
header: 
  seq: 348
  stamp: 
    secs: 17
    nsecs:  16000000
  frame_id: "map"
child_frame_id: "base_link"
pose: 
  pose: 
    position: 
      x: 0.00799740571529
      y: -0.00493986764923
      z: -0.0046972092241
    orientation: 
      x: -0.000986759479056
      y: 0.000666207156952
      z: 0.000883271504243
      w: -0.999998929215
  covariance: [0.0, 0.0, 0.0, 0.0, 0.0, 0.0, 0.0, 0.0, 0.0, 0.0, 0.0, 0.0, 0.0, 0.0, 0.0, 0.0, 0.0, 0.0, 0.0, 0.0, 0.0, 0.0, 0.0, 0.0, 0.0, 0.0, 0.0, 0.0, 0.0, 0.0, 0.0, 0.0, 0.0, 0.0, 0.0, 0.0]
twist: 
  twist: 
    linear: 
      x: 0.000872812906129
      y: 0.0117114336656
      z: -0.0139767606741
    angular: 
      x: 0.00122903496958
      y: -0.000172474363353
      z: 0.00139270105865
  covariance: [0.0, 0.0, 0.0, 0.0, 0.0, 0.0, 0.0, 0.0, 0.0, 0.0, 0.0, 0.0, 0.0, 0.0, 0.0, 0.0, 0.0, 0.0, 0.0, 0.0, 0.0, 0.0, 0.0, 0.0, 0.0, 0.0, 0.0, 0.0, 0.0, 0.0, 0.0, 0.0, 0.0, 0.0, 0.0, 0.0]
---
header: 
  seq: 349
  stamp: 
    secs: 17
    nsecs:  48000000
  frame_id: "map"
child_frame_id: "base_link"
pose: 
  pose: 
    position: 
      x: 0.00828336272389
      y: -0.0053088683635
      z: -0.00430178456008
    orientation: 
      x: -0.00100235931803
      y: 0.000643696551915
      z: 0.00087231332363
      w: -0.999998929215
  covariance: [0.0, 0.0, 0.0, 0.0, 0.0, 0.0, 0.0, 0.0, 0.0, 0.0, 0.0, 0.0, 0.0, 0.0, 0.0, 0.0, 0.0, 0.0, 0.0, 0.0, 0.0, 0.0, 0.0, 0.0, 0.0, 0.0, 0.0, 0.0, 0.0, 0.0, 0.0, 0.0, 0.0, 0.0, 0.0, 0.0]
twist: 
  twist: 
    linear: 
      x: 0.000535484915947
      y: 0.011618115942
      z: -0.0140149281154
    angular: 
      x: 0.000599469407462
      y: 0.00032840546919
      z: 0.0018333173357
  covariance: [0.0, 0.0, 0.0, 0.0, 0.0, 0.0, 0.0, 0.0, 0.0, 0.0, 0.0, 0.0, 0.0, 0.0, 0.0, 0.0, 0.0, 0.0, 0.0, 0.0, 0.0, 0.0, 0.0, 0.0, 0.0, 0.0, 0.0, 0.0, 0.0, 0.0, 0.0, 0.0, 0.0, 0.0, 0.0, 0.0]
---
header: 
  seq: 350
  stamp: 
    secs: 17
    nsecs:  84000000
  frame_id: "map"
child_frame_id: "base_link"
pose: 
  pose: 
    position: 
      x: 0.00863354559988
      y: -0.00569464452565
      z: -0.00390118174255
    orientation: 
      x: -0.00100424269358
      y: 0.000656800167638
      z: 0.000849849053374
      w: -0.999998971361
  covariance: [0.0, 0.0, 0.0, 0.0, 0.0, 0.0, 0.0, 0.0, 0.0, 0.0, 0.0, 0.0, 0.0, 0.0, 0.0, 0.0, 0.0, 0.0, 0.0, 0.0, 0.0, 0.0, 0.0, 0.0, 0.0, 0.0, 0.0, 0.0, 0.0, 0.0, 0.0, 0.0, 0.0, 0.0, 0.0, 0.0]
twist: 
  twist: 
    linear: 
      x: 0.000877006061917
      y: 0.0112030441475
      z: -0.0137999820305
    angular: 
      x: -0.00101302284747
      y: -0.00211384776048
      z: -0.000478674133774
  covariance: [0.0, 0.0, 0.0, 0.0, 0.0, 0.0, 0.0, 0.0, 0.0, 0.0, 0.0, 0.0, 0.0, 0.0, 0.0, 0.0, 0.0, 0.0, 0.0, 0.0, 0.0, 0.0, 0.0, 0.0, 0.0, 0.0, 0.0, 0.0, 0.0, 0.0, 0.0, 0.0, 0.0, 0.0, 0.0, 0.0]
---
header: 
  seq: 351
  stamp: 
    secs: 17
    nsecs: 116000000
  frame_id: "map"
child_frame_id: "base_link"
pose: 
  pose: 
    position: 
      x: 0.00888078007847
      y: -0.00591212930158
      z: -0.00364288548008
    orientation: 
      x: -0.000996484761453
      y: 0.000663191949183
      z: 0.00086127084932
      w: -0.999998929215
  covariance: [0.0, 0.0, 0.0, 0.0, 0.0, 0.0, 0.0, 0.0, 0.0, 0.0, 0.0, 0.0, 0.0, 0.0, 0.0, 0.0, 0.0, 0.0, 0.0, 0.0, 0.0, 0.0, 0.0, 0.0, 0.0, 0.0, 0.0, 0.0, 0.0, 0.0, 0.0, 0.0, 0.0, 0.0, 0.0, 0.0]
twist: 
  twist: 
    linear: 
      x: 0.000595658906462
      y: 0.0107333654152
      z: -0.013853323368
    angular: 
      x: 0.00103402836248
      y: 0.000747326179408
      z: 5.43148780707e-05
  covariance: [0.0, 0.0, 0.0, 0.0, 0.0, 0.0, 0.0, 0.0, 0.0, 0.0, 0.0, 0.0, 0.0, 0.0, 0.0, 0.0, 0.0, 0.0, 0.0, 0.0, 0.0, 0.0, 0.0, 0.0, 0.0, 0.0, 0.0, 0.0, 0.0, 0.0, 0.0, 0.0, 0.0, 0.0, 0.0, 0.0]
---
header: 
  seq: 352
  stamp: 
    secs: 17
    nsecs: 152000000
  frame_id: "map"
child_frame_id: "base_link"
pose: 
  pose: 
    position: 
      x: 0.00910190586001
      y: -0.00614182511345
      z: -0.00340865156613
    orientation: 
      x: -0.000976378883136
      y: 0.00064091077488
      z: 0.000845971543311
      w: -0.999998971361
  covariance: [0.0, 0.0, 0.0, 0.0, 0.0, 0.0, 0.0, 0.0, 0.0, 0.0, 0.0, 0.0, 0.0, 0.0, 0.0, 0.0, 0.0, 0.0, 0.0, 0.0, 0.0, 0.0, 0.0, 0.0, 0.0, 0.0, 0.0, 0.0, 0.0, 0.0, 0.0, 0.0, 0.0, 0.0, 0.0, 0.0]
twist: 
  twist: 
    linear: 
      x: 0.0002193141114
      y: 0.0105579936092
      z: -0.0138477635115
    angular: 
      x: -0.0018552003894
      y: -0.00137045164593
      z: -0.00146813574247
  covariance: [0.0, 0.0, 0.0, 0.0, 0.0, 0.0, 0.0, 0.0, 0.0, 0.0, 0.0, 0.0, 0.0, 0.0, 0.0, 0.0, 0.0, 0.0, 0.0, 0.0, 0.0, 0.0, 0.0, 0.0, 0.0, 0.0, 0.0, 0.0, 0.0, 0.0, 0.0, 0.0, 0.0, 0.0, 0.0, 0.0]
---
header: 
  seq: 353
  stamp: 
    secs: 17
    nsecs: 184000000
  frame_id: "map"
child_frame_id: "base_link"
pose: 
  pose: 
    position: 
      x: 0.0093785841018
      y: -0.00638025347143
      z: -0.00322504388168
    orientation: 
      x: -0.000987103908124
      y: 0.000649605404252
      z: 0.000823212245115
      w: -0.999998971361
  covariance: [0.0, 0.0, 0.0, 0.0, 0.0, 0.0, 0.0, 0.0, 0.0, 0.0, 0.0, 0.0, 0.0, 0.0, 0.0, 0.0, 0.0, 0.0, 0.0, 0.0, 0.0, 0.0, 0.0, 0.0, 0.0, 0.0, 0.0, 0.0, 0.0, 0.0, 0.0, 0.0, 0.0, 0.0, 0.0, 0.0]
twist: 
  twist: 
    linear: 
      x: 0.000789183501156
      y: 0.00971442886876
      z: -0.0133119068504
    angular: 
      x: 0.00215490441769
      y: -0.00119705416728
      z: 0.000908847374376
  covariance: [0.0, 0.0, 0.0, 0.0, 0.0, 0.0, 0.0, 0.0, 0.0, 0.0, 0.0, 0.0, 0.0, 0.0, 0.0, 0.0, 0.0, 0.0, 0.0, 0.0, 0.0, 0.0, 0.0, 0.0, 0.0, 0.0, 0.0, 0.0, 0.0, 0.0, 0.0, 0.0, 0.0, 0.0, 0.0, 0.0]
---
header: 
  seq: 354
  stamp: 
    secs: 17
    nsecs: 216000000
  frame_id: "map"
child_frame_id: "base_link"
pose: 
  pose: 
    position: 
      x: 0.00958682596684
      y: -0.00650949869305
      z: -0.00318337744102
    orientation: 
      x: -0.00100554142567
      y: 0.000638600055389
      z: 0.000829365684997
      w: -0.999998971361
  covariance: [0.0, 0.0, 0.0, 0.0, 0.0, 0.0, 0.0, 0.0, 0.0, 0.0, 0.0, 0.0, 0.0, 0.0, 0.0, 0.0, 0.0, 0.0, 0.0, 0.0, 0.0, 0.0, 0.0, 0.0, 0.0, 0.0, 0.0, 0.0, 0.0, 0.0, 0.0, 0.0, 0.0, 0.0, 0.0, 0.0]
twist: 
  twist: 
    linear: 
      x: 0.00111569117465
      y: 0.00939519255595
      z: -0.0134608154616
    angular: 
      x: -0.00121009442955
      y: -0.000614083372056
      z: 0.00199603918009
  covariance: [0.0, 0.0, 0.0, 0.0, 0.0, 0.0, 0.0, 0.0, 0.0, 0.0, 0.0, 0.0, 0.0, 0.0, 0.0, 0.0, 0.0, 0.0, 0.0, 0.0, 0.0, 0.0, 0.0, 0.0, 0.0, 0.0, 0.0, 0.0, 0.0, 0.0, 0.0, 0.0, 0.0, 0.0, 0.0, 0.0]
---
header: 
  seq: 355
  stamp: 
    secs: 17
    nsecs: 252000000
  frame_id: "map"
child_frame_id: "base_link"
pose: 
  pose: 
    position: 
      x: 0.00978711619973
      y: -0.00665205344558
      z: -0.00298761809245
    orientation: 
      x: -0.00104415536811
      y: 0.000644342542919
      z: 0.000799610009949
      w: -0.999998971361
  covariance: [0.0, 0.0, 0.0, 0.0, 0.0, 0.0, 0.0, 0.0, 0.0, 0.0, 0.0, 0.0, 0.0, 0.0, 0.0, 0.0, 0.0, 0.0, 0.0, 0.0, 0.0, 0.0, 0.0, 0.0, 0.0, 0.0, 0.0, 0.0, 0.0, 0.0, 0.0, 0.0, 0.0, 0.0, 0.0, 0.0]
twist: 
  twist: 
    linear: 
      x: 0.00138590977721
      y: 0.00924547154328
      z: -0.0134368688272
    angular: 
      x: 0.00240536592901
      y: -0.000780795118771
      z: 0.00237645022571
  covariance: [0.0, 0.0, 0.0, 0.0, 0.0, 0.0, 0.0, 0.0, 0.0, 0.0, 0.0, 0.0, 0.0, 0.0, 0.0, 0.0, 0.0, 0.0, 0.0, 0.0, 0.0, 0.0, 0.0, 0.0, 0.0, 0.0, 0.0, 0.0, 0.0, 0.0, 0.0, 0.0, 0.0, 0.0, 0.0, 0.0]
---
header: 
  seq: 356
  stamp: 
    secs: 17
    nsecs: 284000000
  frame_id: "map"
child_frame_id: "base_link"
pose: 
  pose: 
    position: 
      x: 0.0100442124531
      y: -0.006777996663
      z: -0.00276631722227
    orientation: 
      x: -0.00106167123203
      y: 0.00064606111771
      z: 0.000798345604493
      w: -0.999998971361
  covariance: [0.0, 0.0, 0.0, 0.0, 0.0, 0.0, 0.0, 0.0, 0.0, 0.0, 0.0, 0.0, 0.0, 0.0, 0.0, 0.0, 0.0, 0.0, 0.0, 0.0, 0.0, 0.0, 0.0, 0.0, 0.0, 0.0, 0.0, 0.0, 0.0, 0.0, 0.0, 0.0, 0.0, 0.0, 0.0, 0.0]
twist: 
  twist: 
    linear: 
      x: 0.00137616391868
      y: 0.00881979916141
      z: -0.0130394960146
    angular: 
      x: 0.00216269190423
      y: -8.20921632112e-05
      z: -0.000603527936619
  covariance: [0.0, 0.0, 0.0, 0.0, 0.0, 0.0, 0.0, 0.0, 0.0, 0.0, 0.0, 0.0, 0.0, 0.0, 0.0, 0.0, 0.0, 0.0, 0.0, 0.0, 0.0, 0.0, 0.0, 0.0, 0.0, 0.0, 0.0, 0.0, 0.0, 0.0, 0.0, 0.0, 0.0, 0.0, 0.0, 0.0]
---
header: 
  seq: 357
  stamp: 
    secs: 17
    nsecs: 316000000
  frame_id: "map"
child_frame_id: "base_link"
pose: 
  pose: 
    position: 
      x: 0.0102230841294
      y: -0.00682031549513
      z: -0.00264769489877
    orientation: 
      x: -0.00108269612979
      y: 0.000631659860614
      z: 0.000797123345887
      w: -0.999998929215
  covariance: [0.0, 0.0, 0.0, 0.0, 0.0, 0.0, 0.0, 0.0, 0.0, 0.0, 0.0, 0.0, 0.0, 0.0, 0.0, 0.0, 0.0, 0.0, 0.0, 0.0, 0.0, 0.0, 0.0, 0.0, 0.0, 0.0, 0.0, 0.0, 0.0, 0.0, 0.0, 0.0, 0.0, 0.0, 0.0, 0.0]
twist: 
  twist: 
    linear: 
      x: 0.000852093719987
      y: 0.00893045566076
      z: -0.0124233800652
    angular: 
      x: 0.00248428247869
      y: -0.000922938808799
      z: 0.0016071042046
  covariance: [0.0, 0.0, 0.0, 0.0, 0.0, 0.0, 0.0, 0.0, 0.0, 0.0, 0.0, 0.0, 0.0, 0.0, 0.0, 0.0, 0.0, 0.0, 0.0, 0.0, 0.0, 0.0, 0.0, 0.0, 0.0, 0.0, 0.0, 0.0, 0.0, 0.0, 0.0, 0.0, 0.0, 0.0, 0.0, 0.0]
---
header: 
  seq: 358
  stamp: 
    secs: 17
    nsecs: 352000000
  frame_id: "map"
child_frame_id: "base_link"
pose: 
  pose: 
    position: 
      x: 0.0103754475713
      y: -0.00687029724941
      z: -0.00250965543091
    orientation: 
      x: -0.00110440013099
      y: 0.000624052169242
      z: 0.000760287000288
      w: -0.999998929215
  covariance: [0.0, 0.0, 0.0, 0.0, 0.0, 0.0, 0.0, 0.0, 0.0, 0.0, 0.0, 0.0, 0.0, 0.0, 0.0, 0.0, 0.0, 0.0, 0.0, 0.0, 0.0, 0.0, 0.0, 0.0, 0.0, 0.0, 0.0, 0.0, 0.0, 0.0, 0.0, 0.0, 0.0, 0.0, 0.0, 0.0]
twist: 
  twist: 
    linear: 
      x: 0.000692369411234
      y: 0.00863219843209
      z: -0.0116230495113
    angular: 
      x: -0.00147435592953
      y: 0.000718118622899
      z: 0.00116933707613
  covariance: [0.0, 0.0, 0.0, 0.0, 0.0, 0.0, 0.0, 0.0, 0.0, 0.0, 0.0, 0.0, 0.0, 0.0, 0.0, 0.0, 0.0, 0.0, 0.0, 0.0, 0.0, 0.0, 0.0, 0.0, 0.0, 0.0, 0.0, 0.0, 0.0, 0.0, 0.0, 0.0, 0.0, 0.0, 0.0, 0.0]
---
header: 
  seq: 359
  stamp: 
    secs: 17
    nsecs: 384000000
  frame_id: "map"
child_frame_id: "base_link"
pose: 
  pose: 
    position: 
      x: 0.0105715924874
      y: -0.00688559142873
      z: -0.00242218235508
    orientation: 
      x: -0.00111680787097
      y: 0.000603486215269
      z: 0.000733228723544
      w: -0.999998929215
  covariance: [0.0, 0.0, 0.0, 0.0, 0.0, 0.0, 0.0, 0.0, 0.0, 0.0, 0.0, 0.0, 0.0, 0.0, 0.0, 0.0, 0.0, 0.0, 0.0, 0.0, 0.0, 0.0, 0.0, 0.0, 0.0, 0.0, 0.0, 0.0, 0.0, 0.0, 0.0, 0.0, 0.0, 0.0, 0.0, 0.0]
twist: 
  twist: 
    linear: 
      x: 0.00115281702981
      y: 0.00874026214593
      z: -0.0113225443884
    angular: 
      x: 0.0014478568919
      y: 0.00153262389358
      z: 0.00376467453316
  covariance: [0.0, 0.0, 0.0, 0.0, 0.0, 0.0, 0.0, 0.0, 0.0, 0.0, 0.0, 0.0, 0.0, 0.0, 0.0, 0.0, 0.0, 0.0, 0.0, 0.0, 0.0, 0.0, 0.0, 0.0, 0.0, 0.0, 0.0, 0.0, 0.0, 0.0, 0.0, 0.0, 0.0, 0.0, 0.0, 0.0]
---
header: 
  seq: 360
  stamp: 
    secs: 17
    nsecs: 416000000
  frame_id: "map"
child_frame_id: "base_link"
pose: 
  pose: 
    position: 
      x: 0.0106419324875
      y: -0.00690208887681
      z: -0.00213728030212
    orientation: 
      x: -0.00112264817293
      y: 0.000620187562536
      z: 0.000729519800875
      w: -0.999998929215
  covariance: [0.0, 0.0, 0.0, 0.0, 0.0, 0.0, 0.0, 0.0, 0.0, 0.0, 0.0, 0.0, 0.0, 0.0, 0.0, 0.0, 0.0, 0.0, 0.0, 0.0, 0.0, 0.0, 0.0, 0.0, 0.0, 0.0, 0.0, 0.0, 0.0, 0.0, 0.0, 0.0, 0.0, 0.0, 0.0, 0.0]
twist: 
  twist: 
    linear: 
      x: 0.000957846274295
      y: 0.00897535216432
      z: -0.0110081881209
    angular: 
      x: 0.000405988801504
      y: -0.00199500471354
      z: -0.000163851131219
  covariance: [0.0, 0.0, 0.0, 0.0, 0.0, 0.0, 0.0, 0.0, 0.0, 0.0, 0.0, 0.0, 0.0, 0.0, 0.0, 0.0, 0.0, 0.0, 0.0, 0.0, 0.0, 0.0, 0.0, 0.0, 0.0, 0.0, 0.0, 0.0, 0.0, 0.0, 0.0, 0.0, 0.0, 0.0, 0.0, 0.0]
---
header: 
  seq: 361
  stamp: 
    secs: 17
    nsecs: 452000000
  frame_id: "map"
child_frame_id: "base_link"
pose: 
  pose: 
    position: 
      x: 0.0105671864003
      y: -0.00703531038016
      z: -0.00131011882331
    orientation: 
      x: -0.00113347116671
      y: 0.000638331636763
      z: 0.000722396983477
      w: -0.999998887068
  covariance: [0.0, 0.0, 0.0, 0.0, 0.0, 0.0, 0.0, 0.0, 0.0, 0.0, 0.0, 0.0, 0.0, 0.0, 0.0, 0.0, 0.0, 0.0, 0.0, 0.0, 0.0, 0.0, 0.0, 0.0, 0.0, 0.0, 0.0, 0.0, 0.0, 0.0, 0.0, 0.0, 0.0, 0.0, 0.0, 0.0]
twist: 
  twist: 
    linear: 
      x: 0.00128843948769
      y: 0.00836190006173
      z: -0.0108771626944
    angular: 
      x: -0.000718874798622
      y: 0.000675033428706
      z: 0.000885859015398
  covariance: [0.0, 0.0, 0.0, 0.0, 0.0, 0.0, 0.0, 0.0, 0.0, 0.0, 0.0, 0.0, 0.0, 0.0, 0.0, 0.0, 0.0, 0.0, 0.0, 0.0, 0.0, 0.0, 0.0, 0.0, 0.0, 0.0, 0.0, 0.0, 0.0, 0.0, 0.0, 0.0, 0.0, 0.0, 0.0, 0.0]
---
header: 
  seq: 362
  stamp: 
    secs: 17
    nsecs: 484000000
  frame_id: "map"
child_frame_id: "base_link"
pose: 
  pose: 
    position: 
      x: 0.0104905674234
      y: -0.0071713780053
      z: -0.000405450497055
    orientation: 
      x: -0.0011445374721
      y: 0.000639565131786
      z: 0.000727707486389
      w: -0.999998887068
  covariance: [0.0, 0.0, 0.0, 0.0, 0.0, 0.0, 0.0, 0.0, 0.0, 0.0, 0.0, 0.0, 0.0, 0.0, 0.0, 0.0, 0.0, 0.0, 0.0, 0.0, 0.0, 0.0, 0.0, 0.0, 0.0, 0.0, 0.0, 0.0, 0.0, 0.0, 0.0, 0.0, 0.0, 0.0, 0.0, 0.0]
twist: 
  twist: 
    linear: 
      x: 0.000801765594088
      y: 0.00785079353131
      z: -0.0105409824886
    angular: 
      x: 0.000663914252073
      y: -0.000171274150489
      z: 0.00197992729954
  covariance: [0.0, 0.0, 0.0, 0.0, 0.0, 0.0, 0.0, 0.0, 0.0, 0.0, 0.0, 0.0, 0.0, 0.0, 0.0, 0.0, 0.0, 0.0, 0.0, 0.0, 0.0, 0.0, 0.0, 0.0, 0.0, 0.0, 0.0, 0.0, 0.0, 0.0, 0.0, 0.0, 0.0, 0.0, 0.0, 0.0]
---
header: 
  seq: 363
  stamp: 
    secs: 17
    nsecs: 516000000
  frame_id: "map"
child_frame_id: "base_link"
pose: 
  pose: 
    position: 
      x: 0.0104314424098
      y: -0.00723543344066
      z: 0.000140251038829
    orientation: 
      x: -0.00116096815757
      y: 0.000639633949687
      z: 0.000726190199843
      w: -0.999998887068
  covariance: [0.0, 0.0, 0.0, 0.0, 0.0, 0.0, 0.0, 0.0, 0.0, 0.0, 0.0, 0.0, 0.0, 0.0, 0.0, 0.0, 0.0, 0.0, 0.0, 0.0, 0.0, 0.0, 0.0, 0.0, 0.0, 0.0, 0.0, 0.0, 0.0, 0.0, 0.0, 0.0, 0.0, 0.0, 0.0, 0.0]
twist: 
  twist: 
    linear: 
      x: 0.00070120109847
      y: 0.00738659392756
      z: -0.0102244799829
    angular: 
      x: 0.00200412562117
      y: 0.000364405248547
      z: -0.000678290438373
  covariance: [0.0, 0.0, 0.0, 0.0, 0.0, 0.0, 0.0, 0.0, 0.0, 0.0, 0.0, 0.0, 0.0, 0.0, 0.0, 0.0, 0.0, 0.0, 0.0, 0.0, 0.0, 0.0, 0.0, 0.0, 0.0, 0.0, 0.0, 0.0, 0.0, 0.0, 0.0, 0.0, 0.0, 0.0, 0.0, 0.0]
---
header: 
  seq: 364
  stamp: 
    secs: 17
    nsecs: 552000000
  frame_id: "map"
child_frame_id: "base_link"
pose: 
  pose: 
    position: 
      x: 0.0103790042922
      y: -0.00731056928635
      z: 0.000644715735689
    orientation: 
      x: -0.00115031449205
      y: 0.000662170392305
      z: 0.000728002514329
      w: -0.999998844921
  covariance: [0.0, 0.0, 0.0, 0.0, 0.0, 0.0, 0.0, 0.0, 0.0, 0.0, 0.0, 0.0, 0.0, 0.0, 0.0, 0.0, 0.0, 0.0, 0.0, 0.0, 0.0, 0.0, 0.0, 0.0, 0.0, 0.0, 0.0, 0.0, 0.0, 0.0, 0.0, 0.0, 0.0, 0.0, 0.0, 0.0]
twist: 
  twist: 
    linear: 
      x: 0.00056282429365
      y: 0.0074647869734
      z: -0.0101569775322
    angular: 
      x: -0.000193056461285
      y: 0.000725894118659
      z: -0.00220371969044
  covariance: [0.0, 0.0, 0.0, 0.0, 0.0, 0.0, 0.0, 0.0, 0.0, 0.0, 0.0, 0.0, 0.0, 0.0, 0.0, 0.0, 0.0, 0.0, 0.0, 0.0, 0.0, 0.0, 0.0, 0.0, 0.0, 0.0, 0.0, 0.0, 0.0, 0.0, 0.0, 0.0, 0.0, 0.0, 0.0, 0.0]
---
header: 
  seq: 365
  stamp: 
    secs: 17
    nsecs: 584000000
  frame_id: "map"
child_frame_id: "base_link"
pose: 
  pose: 
    position: 
      x: 0.0103159509599
      y: -0.00734941568226
      z: 0.00117245840374
    orientation: 
      x: -0.0011500608701
      y: 0.000671718711444
      z: 0.000739213576033
      w: -0.999998844921
  covariance: [0.0, 0.0, 0.0, 0.0, 0.0, 0.0, 0.0, 0.0, 0.0, 0.0, 0.0, 0.0, 0.0, 0.0, 0.0, 0.0, 0.0, 0.0, 0.0, 0.0, 0.0, 0.0, 0.0, 0.0, 0.0, 0.0, 0.0, 0.0, 0.0, 0.0, 0.0, 0.0, 0.0, 0.0, 0.0, 0.0]
twist: 
  twist: 
    linear: 
      x: 0.000727497400704
      y: 0.00760796741693
      z: -0.00940539565461
    angular: 
      x: 0.000550915196072
      y: -0.0015427803155
      z: -0.000431371212471
  covariance: [0.0, 0.0, 0.0, 0.0, 0.0, 0.0, 0.0, 0.0, 0.0, 0.0, 0.0, 0.0, 0.0, 0.0, 0.0, 0.0, 0.0, 0.0, 0.0, 0.0, 0.0, 0.0, 0.0, 0.0, 0.0, 0.0, 0.0, 0.0, 0.0, 0.0, 0.0, 0.0, 0.0, 0.0, 0.0, 0.0]
---
header: 
  seq: 366
  stamp: 
    secs: 17
    nsecs: 616000000
  frame_id: "map"
child_frame_id: "base_link"
pose: 
  pose: 
    position: 
      x: 0.0102832531556
      y: -0.00733752455562
      z: 0.00148105085827
    orientation: 
      x: -0.00117128738538
      y: 0.000692682179347
      z: 0.000747305770947
      w: -0.999998844921
  covariance: [0.0, 0.0, 0.0, 0.0, 0.0, 0.0, 0.0, 0.0, 0.0, 0.0, 0.0, 0.0, 0.0, 0.0, 0.0, 0.0, 0.0, 0.0, 0.0, 0.0, 0.0, 0.0, 0.0, 0.0, 0.0, 0.0, 0.0, 0.0, 0.0, 0.0, 0.0, 0.0, 0.0, 0.0, 0.0, 0.0]
twist: 
  twist: 
    linear: 
      x: 0.000843898661594
      y: 0.00755079996178
      z: -0.00938064054002
    angular: 
      x: 0.00319056701846
      y: -0.000523902999703
      z: -0.00243336963467
  covariance: [0.0, 0.0, 0.0, 0.0, 0.0, 0.0, 0.0, 0.0, 0.0, 0.0, 0.0, 0.0, 0.0, 0.0, 0.0, 0.0, 0.0, 0.0, 0.0, 0.0, 0.0, 0.0, 0.0, 0.0, 0.0, 0.0, 0.0, 0.0, 0.0, 0.0, 0.0, 0.0, 0.0, 0.0, 0.0, 0.0]
---
header: 
  seq: 367
  stamp: 
    secs: 17
    nsecs: 652000000
  frame_id: "map"
child_frame_id: "base_link"
pose: 
  pose: 
    position: 
      x: 0.010266260244
      y: -0.00734299514443
      z: 0.00176188710611
    orientation: 
      x: -0.00118692833193
      y: 0.000697776000536
      z: 0.000744271197854
      w: -0.999998760627
  covariance: [0.0, 0.0, 0.0, 0.0, 0.0, 0.0, 0.0, 0.0, 0.0, 0.0, 0.0, 0.0, 0.0, 0.0, 0.0, 0.0, 0.0, 0.0, 0.0, 0.0, 0.0, 0.0, 0.0, 0.0, 0.0, 0.0, 0.0, 0.0, 0.0, 0.0, 0.0, 0.0, 0.0, 0.0, 0.0, 0.0]
twist: 
  twist: 
    linear: 
      x: 0.00142010761833
      y: 0.00727208482047
      z: -0.00939434533728
    angular: 
      x: -0.000281682761852
      y: 0.000432116241427
      z: 0.000761306029744
  covariance: [0.0, 0.0, 0.0, 0.0, 0.0, 0.0, 0.0, 0.0, 0.0, 0.0, 0.0, 0.0, 0.0, 0.0, 0.0, 0.0, 0.0, 0.0, 0.0, 0.0, 0.0, 0.0, 0.0, 0.0, 0.0, 0.0, 0.0, 0.0, 0.0, 0.0, 0.0, 0.0, 0.0, 0.0, 0.0, 0.0]
---
header: 
  seq: 368
  stamp: 
    secs: 17
    nsecs: 680000000
  frame_id: "map"
child_frame_id: "base_link"
pose: 
  pose: 
    position: 
      x: 0.0102565521374
      y: -0.00729893706739
      z: 0.00199688854627
    orientation: 
      x: -0.0011931253798
      y: 0.000704154189312
      z: 0.000745957071794
      w: -0.999998760627
  covariance: [0.0, 0.0, 0.0, 0.0, 0.0, 0.0, 0.0, 0.0, 0.0, 0.0, 0.0, 0.0, 0.0, 0.0, 0.0, 0.0, 0.0, 0.0, 0.0, 0.0, 0.0, 0.0, 0.0, 0.0, 0.0, 0.0, 0.0, 0.0, 0.0, 0.0, 0.0, 0.0, 0.0, 0.0, 0.0, 0.0]
twist: 
  twist: 
    linear: 
      x: 0.00137512818301
      y: 0.00751956222166
      z: -0.00999375077469
    angular: 
      x: 0.000817661581095
      y: -0.00161024578847
      z: -0.0010447925888
  covariance: [0.0, 0.0, 0.0, 0.0, 0.0, 0.0, 0.0, 0.0, 0.0, 0.0, 0.0, 0.0, 0.0, 0.0, 0.0, 0.0, 0.0, 0.0, 0.0, 0.0, 0.0, 0.0, 0.0, 0.0, 0.0, 0.0, 0.0, 0.0, 0.0, 0.0, 0.0, 0.0, 0.0, 0.0, 0.0, 0.0]
---
header: 
  seq: 369
  stamp: 
    secs: 17
    nsecs: 716000000
  frame_id: "map"
child_frame_id: "base_link"
pose: 
  pose: 
    position: 
      x: 0.0102604934946
      y: -0.00722555536777
      z: 0.00209044665098
    orientation: 
      x: -0.00118743012226
      y: 0.000729395377122
      z: 0.000747558652038
      w: -0.999998760627
  covariance: [0.0, 0.0, 0.0, 0.0, 0.0, 0.0, 0.0, 0.0, 0.0, 0.0, 0.0, 0.0, 0.0, 0.0, 0.0, 0.0, 0.0, 0.0, 0.0, 0.0, 0.0, 0.0, 0.0, 0.0, 0.0, 0.0, 0.0, 0.0, 0.0, 0.0, 0.0, 0.0, 0.0, 0.0, 0.0, 0.0]
twist: 
  twist: 
    linear: 
      x: 0.00136445920121
      y: 0.00759145077125
      z: -0.00984689748481
    angular: 
      x: 0.000586957205087
      y: -0.00217142747715
      z: -0.000112813315354
  covariance: [0.0, 0.0, 0.0, 0.0, 0.0, 0.0, 0.0, 0.0, 0.0, 0.0, 0.0, 0.0, 0.0, 0.0, 0.0, 0.0, 0.0, 0.0, 0.0, 0.0, 0.0, 0.0, 0.0, 0.0, 0.0, 0.0, 0.0, 0.0, 0.0, 0.0, 0.0, 0.0, 0.0, 0.0, 0.0, 0.0]
---
header: 
  seq: 370
  stamp: 
    secs: 17
    nsecs: 752000000
  frame_id: "map"
child_frame_id: "base_link"
pose: 
  pose: 
    position: 
      x: 0.010262128897
      y: -0.00715878838673
      z: 0.00217102118768
    orientation: 
      x: -0.00117372537888
      y: 0.000752193796978
      z: 0.000731627143301
      w: -0.999998760627
  covariance: [0.0, 0.0, 0.0, 0.0, 0.0, 0.0, 0.0, 0.0, 0.0, 0.0, 0.0, 0.0, 0.0, 0.0, 0.0, 0.0, 0.0, 0.0, 0.0, 0.0, 0.0, 0.0, 0.0, 0.0, 0.0, 0.0, 0.0, 0.0, 0.0, 0.0, 0.0, 0.0, 0.0, 0.0, 0.0, 0.0]
twist: 
  twist: 
    linear: 
      x: 0.00147841259278
      y: 0.00803784993651
      z: -0.0101382388017
    angular: 
      x: -0.00324691133574
      y: 0.00212821178138
      z: -0.000557479390409
  covariance: [0.0, 0.0, 0.0, 0.0, 0.0, 0.0, 0.0, 0.0, 0.0, 0.0, 0.0, 0.0, 0.0, 0.0, 0.0, 0.0, 0.0, 0.0, 0.0, 0.0, 0.0, 0.0, 0.0, 0.0, 0.0, 0.0, 0.0, 0.0, 0.0, 0.0, 0.0, 0.0, 0.0, 0.0, 0.0, 0.0]
---
header: 
  seq: 371
  stamp: 
    secs: 17
    nsecs: 784000000
  frame_id: "map"
child_frame_id: "base_link"
pose: 
  pose: 
    position: 
      x: 0.0102790221572
      y: -0.00700976373628
      z: 0.00216758623719
    orientation: 
      x: -0.00116274025968
      y: 0.000745376317856
      z: 0.000734029513666
      w: -0.999998802774
  covariance: [0.0, 0.0, 0.0, 0.0, 0.0, 0.0, 0.0, 0.0, 0.0, 0.0, 0.0, 0.0, 0.0, 0.0, 0.0, 0.0, 0.0, 0.0, 0.0, 0.0, 0.0, 0.0, 0.0, 0.0, 0.0, 0.0, 0.0, 0.0, 0.0, 0.0, 0.0, 0.0, 0.0, 0.0, 0.0, 0.0]
twist: 
  twist: 
    linear: 
      x: 0.00150480801443
      y: 0.0085113814671
      z: -0.0102409157079
    angular: 
      x: 0.000143014083733
      y: 0.00110530259553
      z: 0.00186533271335
  covariance: [0.0, 0.0, 0.0, 0.0, 0.0, 0.0, 0.0, 0.0, 0.0, 0.0, 0.0, 0.0, 0.0, 0.0, 0.0, 0.0, 0.0, 0.0, 0.0, 0.0, 0.0, 0.0, 0.0, 0.0, 0.0, 0.0, 0.0, 0.0, 0.0, 0.0, 0.0, 0.0, 0.0, 0.0, 0.0, 0.0]
---
header: 
  seq: 372
  stamp: 
    secs: 17
    nsecs: 816000000
  frame_id: "map"
child_frame_id: "base_link"
pose: 
  pose: 
    position: 
      x: 0.0103698875755
      y: -0.0067926524207
      z: 0.00260610436089
    orientation: 
      x: -0.00113679862747
      y: 0.000735874590741
      z: 0.000727749633238
      w: -0.999998844921
  covariance: [0.0, 0.0, 0.0, 0.0, 0.0, 0.0, 0.0, 0.0, 0.0, 0.0, 0.0, 0.0, 0.0, 0.0, 0.0, 0.0, 0.0, 0.0, 0.0, 0.0, 0.0, 0.0, 0.0, 0.0, 0.0, 0.0, 0.0, 0.0, 0.0, 0.0, 0.0, 0.0, 0.0, 0.0, 0.0, 0.0]
twist: 
  twist: 
    linear: 
      x: 0.0016835639409
      y: 0.00863166757528
      z: -0.0101669594262
    angular: 
      x: -0.00120917195454
      y: 0.00147821765859
      z: 0.0014261737233
  covariance: [0.0, 0.0, 0.0, 0.0, 0.0, 0.0, 0.0, 0.0, 0.0, 0.0, 0.0, 0.0, 0.0, 0.0, 0.0, 0.0, 0.0, 0.0, 0.0, 0.0, 0.0, 0.0, 0.0, 0.0, 0.0, 0.0, 0.0, 0.0, 0.0, 0.0, 0.0, 0.0, 0.0, 0.0, 0.0, 0.0]
---
header: 
  seq: 373
  stamp: 
    secs: 17
    nsecs: 852000000
  frame_id: "map"
child_frame_id: "base_link"
pose: 
  pose: 
    position: 
      x: 0.0105861611664
      y: -0.00646640220657
      z: 0.00387782906182
    orientation: 
      x: -0.0011275901173
      y: 0.00074240990412
      z: 0.000736516177728
      w: -0.999998844921
  covariance: [0.0, 0.0, 0.0, 0.0, 0.0, 0.0, 0.0, 0.0, 0.0, 0.0, 0.0, 0.0, 0.0, 0.0, 0.0, 0.0, 0.0, 0.0, 0.0, 0.0, 0.0, 0.0, 0.0, 0.0, 0.0, 0.0, 0.0, 0.0, 0.0, 0.0, 0.0, 0.0, 0.0, 0.0, 0.0, 0.0]
twist: 
  twist: 
    linear: 
      x: 0.00267785289557
      y: 0.00903800987996
      z: -0.0105086980797
    angular: 
      x: 0.00143643852789
      y: -0.000665789237246
      z: 0.000555272097699
  covariance: [0.0, 0.0, 0.0, 0.0, 0.0, 0.0, 0.0, 0.0, 0.0, 0.0, 0.0, 0.0, 0.0, 0.0, 0.0, 0.0, 0.0, 0.0, 0.0, 0.0, 0.0, 0.0, 0.0, 0.0, 0.0, 0.0, 0.0, 0.0, 0.0, 0.0, 0.0, 0.0, 0.0, 0.0, 0.0, 0.0]
---
header: 
  seq: 374
  stamp: 
    secs: 17
    nsecs: 884000000
  frame_id: "map"
child_frame_id: "base_link"
pose: 
  pose: 
    position: 
      x: 0.0109126893803
      y: -0.00599621376023
      z: 0.00530611956492
    orientation: 
      x: -0.00112592628402
      y: 0.000733415194537
      z: 0.000736558324577
      w: -0.999998802774
  covariance: [0.0, 0.0, 0.0, 0.0, 0.0, 0.0, 0.0, 0.0, 0.0, 0.0, 0.0, 0.0, 0.0, 0.0, 0.0, 0.0, 0.0, 0.0, 0.0, 0.0, 0.0, 0.0, 0.0, 0.0, 0.0, 0.0, 0.0, 0.0, 0.0, 0.0, 0.0, 0.0, 0.0, 0.0, 0.0, 0.0]
twist: 
  twist: 
    linear: 
      x: 0.00413578464183
      y: 0.00959824354929
      z: -0.0105624973905
    angular: 
      x: 0.00131653924473
      y: -0.000243285874603
      z: -0.0011397380149
  covariance: [0.0, 0.0, 0.0, 0.0, 0.0, 0.0, 0.0, 0.0, 0.0, 0.0, 0.0, 0.0, 0.0, 0.0, 0.0, 0.0, 0.0, 0.0, 0.0, 0.0, 0.0, 0.0, 0.0, 0.0, 0.0, 0.0, 0.0, 0.0, 0.0, 0.0, 0.0, 0.0, 0.0, 0.0, 0.0, 0.0]
---
header: 
  seq: 375
  stamp: 
    secs: 17
    nsecs: 916000000
  frame_id: "map"
child_frame_id: "base_link"
pose: 
  pose: 
    position: 
      x: 0.0111921643838
      y: -0.00560965528712
      z: 0.00622223829851
    orientation: 
      x: -0.00112093994964
      y: 0.000716443020842
      z: 0.000720121053657
      w: -0.999998887068
  covariance: [0.0, 0.0, 0.0, 0.0, 0.0, 0.0, 0.0, 0.0, 0.0, 0.0, 0.0, 0.0, 0.0, 0.0, 0.0, 0.0, 0.0, 0.0, 0.0, 0.0, 0.0, 0.0, 0.0, 0.0, 0.0, 0.0, 0.0, 0.0, 0.0, 0.0, 0.0, 0.0, 0.0, 0.0, 0.0, 0.0]
twist: 
  twist: 
    linear: 
      x: 0.00457591157409
      y: 0.0100081366516
      z: -0.0109046412798
    angular: 
      x: -0.000714495079592
      y: 0.0014854533365
      z: 0.00192930363119
  covariance: [0.0, 0.0, 0.0, 0.0, 0.0, 0.0, 0.0, 0.0, 0.0, 0.0, 0.0, 0.0, 0.0, 0.0, 0.0, 0.0, 0.0, 0.0, 0.0, 0.0, 0.0, 0.0, 0.0, 0.0, 0.0, 0.0, 0.0, 0.0, 0.0, 0.0, 0.0, 0.0, 0.0, 0.0, 0.0, 0.0]
---
header: 
  seq: 376
  stamp: 
    secs: 17
    nsecs: 952000000
  frame_id: "map"
child_frame_id: "base_link"
pose: 
  pose: 
    position: 
      x: 0.011461218819
      y: -0.00525625934824
      z: 0.00706314947456
    orientation: 
      x: -0.00110157742402
      y: 0.000728776407023
      z: 0.000731332115361
      w: -0.999998887068
  covariance: [0.0, 0.0, 0.0, 0.0, 0.0, 0.0, 0.0, 0.0, 0.0, 0.0, 0.0, 0.0, 0.0, 0.0, 0.0, 0.0, 0.0, 0.0, 0.0, 0.0, 0.0, 0.0, 0.0, 0.0, 0.0, 0.0, 0.0, 0.0, 0.0, 0.0, 0.0, 0.0, 0.0, 0.0, 0.0, 0.0]
twist: 
  twist: 
    linear: 
      x: 0.00519141365435
      y: 0.0105300262537
      z: -0.0102057103512
    angular: 
      x: -0.0050361729227
      y: -0.00191807164811
      z: -0.00224009621888
  covariance: [0.0, 0.0, 0.0, 0.0, 0.0, 0.0, 0.0, 0.0, 0.0, 0.0, 0.0, 0.0, 0.0, 0.0, 0.0, 0.0, 0.0, 0.0, 0.0, 0.0, 0.0, 0.0, 0.0, 0.0, 0.0, 0.0, 0.0, 0.0, 0.0, 0.0, 0.0, 0.0, 0.0, 0.0, 0.0, 0.0]
---
header: 
  seq: 377
  stamp: 
    secs: 17
    nsecs: 984000000
  frame_id: "map"
child_frame_id: "base_link"
pose: 
  pose: 
    position: 
      x: 0.0118453381583
      y: -0.00472787721083
      z: 0.00812373962253
    orientation: 
      x: -0.00108774175376
      y: 0.000738147310156
      z: 0.000729309066633
      w: -0.999998887068
  covariance: [0.0, 0.0, 0.0, 0.0, 0.0, 0.0, 0.0, 0.0, 0.0, 0.0, 0.0, 0.0, 0.0, 0.0, 0.0, 0.0, 0.0, 0.0, 0.0, 0.0, 0.0, 0.0, 0.0, 0.0, 0.0, 0.0, 0.0, 0.0, 0.0, 0.0, 0.0, 0.0, 0.0, 0.0, 0.0, 0.0]
twist: 
  twist: 
    linear: 
      x: 0.00582686775641
      y: 0.0116658059053
      z: -0.0101150971016
    angular: 
      x: 0.000987250241451
      y: -0.000123905672808
      z: 0.000774348736741
  covariance: [0.0, 0.0, 0.0, 0.0, 0.0, 0.0, 0.0, 0.0, 0.0, 0.0, 0.0, 0.0, 0.0, 0.0, 0.0, 0.0, 0.0, 0.0, 0.0, 0.0, 0.0, 0.0, 0.0, 0.0, 0.0, 0.0, 0.0, 0.0, 0.0, 0.0, 0.0, 0.0, 0.0, 0.0, 0.0, 0.0]
---
header: 
  seq: 378
  stamp: 
    secs: 18
    nsecs:  16000000
  frame_id: "map"
child_frame_id: "base_link"
pose: 
  pose: 
    position: 
      x: 0.0119490716606
      y: -0.00437357835472
      z: 0.00866568461061
    orientation: 
      x: -0.00108490731645
      y: 0.000740004467407
      z: 0.000744608372642
      w: -0.999998929215
  covariance: [0.0, 0.0, 0.0, 0.0, 0.0, 0.0, 0.0, 0.0, 0.0, 0.0, 0.0, 0.0, 0.0, 0.0, 0.0, 0.0, 0.0, 0.0, 0.0, 0.0, 0.0, 0.0, 0.0, 0.0, 0.0, 0.0, 0.0, 0.0, 0.0, 0.0, 0.0, 0.0, 0.0, 0.0, 0.0, 0.0]
twist: 
  twist: 
    linear: 
      x: 0.00597717745723
      y: 0.0124370981283
      z: -0.0104262053369
    angular: 
      x: -3.68531764252e-05
      y: -0.000906811794266
      z: -0.000586109934375
  covariance: [0.0, 0.0, 0.0, 0.0, 0.0, 0.0, 0.0, 0.0, 0.0, 0.0, 0.0, 0.0, 0.0, 0.0, 0.0, 0.0, 0.0, 0.0, 0.0, 0.0, 0.0, 0.0, 0.0, 0.0, 0.0, 0.0, 0.0, 0.0, 0.0, 0.0, 0.0, 0.0, 0.0, 0.0, 0.0, 0.0]
---
header: 
  seq: 379
  stamp: 
    secs: 18
    nsecs:  52000000
  frame_id: "map"
child_frame_id: "base_link"
pose: 
  pose: 
    position: 
      x: 0.0116408886388
      y: -0.00422198930755
      z: 0.00897211767733
    orientation: 
      x: -0.00111964650649
      y: 0.000753723945722
      z: 0.000748317295311
      w: -0.999998844921
  covariance: [0.0, 0.0, 0.0, 0.0, 0.0, 0.0, 0.0, 0.0, 0.0, 0.0, 0.0, 0.0, 0.0, 0.0, 0.0, 0.0, 0.0, 0.0, 0.0, 0.0, 0.0, 0.0, 0.0, 0.0, 0.0, 0.0, 0.0, 0.0, 0.0, 0.0, 0.0, 0.0, 0.0, 0.0, 0.0, 0.0]
twist: 
  twist: 
    linear: 
      x: 0.00607314261434
      y: 0.0127868971305
      z: -0.0102234507496
    angular: 
      x: 0.000394893839257
      y: -0.00156233645976
      z: 0.00183195166755
  covariance: [0.0, 0.0, 0.0, 0.0, 0.0, 0.0, 0.0, 0.0, 0.0, 0.0, 0.0, 0.0, 0.0, 0.0, 0.0, 0.0, 0.0, 0.0, 0.0, 0.0, 0.0, 0.0, 0.0, 0.0, 0.0, 0.0, 0.0, 0.0, 0.0, 0.0, 0.0, 0.0, 0.0, 0.0, 0.0, 0.0]
---
header: 
  seq: 380
  stamp: 
    secs: 18
    nsecs:  84000000
  frame_id: "map"
child_frame_id: "base_link"
pose: 
  pose: 
    position: 
      x: 0.0113042164594
      y: -0.00395237561315
      z: 0.00926037784666
    orientation: 
      x: -0.00112916871022
      y: 0.000765772861255
      z: 0.00074410261046
      w: -0.999998844921
  covariance: [0.0, 0.0, 0.0, 0.0, 0.0, 0.0, 0.0, 0.0, 0.0, 0.0, 0.0, 0.0, 0.0, 0.0, 0.0, 0.0, 0.0, 0.0, 0.0, 0.0, 0.0, 0.0, 0.0, 0.0, 0.0, 0.0, 0.0, 0.0, 0.0, 0.0, 0.0, 0.0, 0.0, 0.0, 0.0, 0.0]
twist: 
  twist: 
    linear: 
      x: 0.00600359205344
      y: 0.0130082108054
      z: -0.00966299018649
    angular: 
      x: -8.18474800326e-05
      y: 0.000937248114496
      z: -0.000164705386851
  covariance: [0.0, 0.0, 0.0, 0.0, 0.0, 0.0, 0.0, 0.0, 0.0, 0.0, 0.0, 0.0, 0.0, 0.0, 0.0, 0.0, 0.0, 0.0, 0.0, 0.0, 0.0, 0.0, 0.0, 0.0, 0.0, 0.0, 0.0, 0.0, 0.0, 0.0, 0.0, 0.0, 0.0, 0.0, 0.0, 0.0]
---
header: 
  seq: 381
  stamp: 
    secs: 18
    nsecs: 116000000
  frame_id: "map"
child_frame_id: "base_link"
pose: 
  pose: 
    position: 
      x: 0.0111055383459
      y: -0.00371483061463
      z: 0.00943346880376
    orientation: 
      x: -0.00115331086957
      y: 0.000778269813429
      z: 0.000728676863905
      w: -0.999998760627
  covariance: [0.0, 0.0, 0.0, 0.0, 0.0, 0.0, 0.0, 0.0, 0.0, 0.0, 0.0, 0.0, 0.0, 0.0, 0.0, 0.0, 0.0, 0.0, 0.0, 0.0, 0.0, 0.0, 0.0, 0.0, 0.0, 0.0, 0.0, 0.0, 0.0, 0.0, 0.0, 0.0, 0.0, 0.0, 0.0, 0.0]
twist: 
  twist: 
    linear: 
      x: 0.00612935417139
      y: 0.0126475741682
      z: -0.00940350811682
    angular: 
      x: -5.15805004397e-05
      y: 0.00137744704261
      z: 0.00151401222683
  covariance: [0.0, 0.0, 0.0, 0.0, 0.0, 0.0, 0.0, 0.0, 0.0, 0.0, 0.0, 0.0, 0.0, 0.0, 0.0, 0.0, 0.0, 0.0, 0.0, 0.0, 0.0, 0.0, 0.0, 0.0, 0.0, 0.0, 0.0, 0.0, 0.0, 0.0, 0.0, 0.0, 0.0, 0.0, 0.0, 0.0]
---
header: 
  seq: 382
  stamp: 
    secs: 18
    nsecs: 152000000
  frame_id: "map"
child_frame_id: "base_link"
pose: 
  pose: 
    position: 
      x: 0.010904786177
      y: -0.00352196325548
      z: 0.00958209950477
    orientation: 
      x: -0.00115536186528
      y: 0.000779574760531
      z: 0.000726948843116
      w: -0.999998802774
  covariance: [0.0, 0.0, 0.0, 0.0, 0.0, 0.0, 0.0, 0.0, 0.0, 0.0, 0.0, 0.0, 0.0, 0.0, 0.0, 0.0, 0.0, 0.0, 0.0, 0.0, 0.0, 0.0, 0.0, 0.0, 0.0, 0.0, 0.0, 0.0, 0.0, 0.0, 0.0, 0.0, 0.0, 0.0, 0.0, 0.0]
twist: 
  twist: 
    linear: 
      x: 0.00563356562953
      y: 0.0124971329594
      z: -0.00999119678219
    angular: 
      x: 0.00258206832223
      y: 0.00043000507867
      z: -0.00196250039153
  covariance: [0.0, 0.0, 0.0, 0.0, 0.0, 0.0, 0.0, 0.0, 0.0, 0.0, 0.0, 0.0, 0.0, 0.0, 0.0, 0.0, 0.0, 0.0, 0.0, 0.0, 0.0, 0.0, 0.0, 0.0, 0.0, 0.0, 0.0, 0.0, 0.0, 0.0, 0.0, 0.0, 0.0, 0.0, 0.0, 0.0]
---
header: 
  seq: 383
  stamp: 
    secs: 18
    nsecs: 184000000
  frame_id: "map"
child_frame_id: "base_link"
pose: 
  pose: 
    position: 
      x: 0.0106725906953
      y: -0.0032269784715
      z: 0.00965188629925
    orientation: 
      x: -0.00115914896953
      y: 0.000765884134698
      z: 0.00072146975281
      w: -0.999998802774
  covariance: [0.0, 0.0, 0.0, 0.0, 0.0, 0.0, 0.0, 0.0, 0.0, 0.0, 0.0, 0.0, 0.0, 0.0, 0.0, 0.0, 0.0, 0.0, 0.0, 0.0, 0.0, 0.0, 0.0, 0.0, 0.0, 0.0, 0.0, 0.0, 0.0, 0.0, 0.0, 0.0, 0.0, 0.0, 0.0, 0.0]
twist: 
  twist: 
    linear: 
      x: 0.00492304398115
      y: 0.0123196272746
      z: -0.0102887741253
    angular: 
      x: -0.00147683406249
      y: 0.000221188864089
      z: 0.0015767068835
  covariance: [0.0, 0.0, 0.0, 0.0, 0.0, 0.0, 0.0, 0.0, 0.0, 0.0, 0.0, 0.0, 0.0, 0.0, 0.0, 0.0, 0.0, 0.0, 0.0, 0.0, 0.0, 0.0, 0.0, 0.0, 0.0, 0.0, 0.0, 0.0, 0.0, 0.0, 0.0, 0.0, 0.0, 0.0, 0.0, 0.0]
---
header: 
  seq: 384
  stamp: 
    secs: 18
    nsecs: 216000000
  frame_id: "map"
child_frame_id: "base_link"
pose: 
  pose: 
    position: 
      x: 0.0105205466971
      y: -0.00296935462393
      z: 0.00962693151087
    orientation: 
      x: -0.00116241296306
      y: 0.000761130842757
      z: 0.000688089448789
      w: -0.999998802774
  covariance: [0.0, 0.0, 0.0, 0.0, 0.0, 0.0, 0.0, 0.0, 0.0, 0.0, 0.0, 0.0, 0.0, 0.0, 0.0, 0.0, 0.0, 0.0, 0.0, 0.0, 0.0, 0.0, 0.0, 0.0, 0.0, 0.0, 0.0, 0.0, 0.0, 0.0, 0.0, 0.0, 0.0, 0.0, 0.0, 0.0]
twist: 
  twist: 
    linear: 
      x: 0.00469086335338
      y: 0.0124062192825
      z: -0.010634093928
    angular: 
      x: 0.000596278812736
      y: -7.74277868913e-05
      z: 0.00220109452493
  covariance: [0.0, 0.0, 0.0, 0.0, 0.0, 0.0, 0.0, 0.0, 0.0, 0.0, 0.0, 0.0, 0.0, 0.0, 0.0, 0.0, 0.0, 0.0, 0.0, 0.0, 0.0, 0.0, 0.0, 0.0, 0.0, 0.0, 0.0, 0.0, 0.0, 0.0, 0.0, 0.0, 0.0, 0.0, 0.0, 0.0]
---
header: 
  seq: 385
  stamp: 
    secs: 18
    nsecs: 252000000
  frame_id: "map"
child_frame_id: "base_link"
pose: 
  pose: 
    position: 
      x: 0.010363378562
      y: -0.00274564675055
      z: 0.00959488749504
    orientation: 
      x: -0.00115370212732
      y: 0.000782270718269
      z: 0.000678648554722
      w: -0.999998802774
  covariance: [0.0, 0.0, 0.0, 0.0, 0.0, 0.0, 0.0, 0.0, 0.0, 0.0, 0.0, 0.0, 0.0, 0.0, 0.0, 0.0, 0.0, 0.0, 0.0, 0.0, 0.0, 0.0, 0.0, 0.0, 0.0, 0.0, 0.0, 0.0, 0.0, 0.0, 0.0, 0.0, 0.0, 0.0, 0.0, 0.0]
twist: 
  twist: 
    linear: 
      x: 0.00444698733315
      y: 0.0125985497578
      z: -0.0107204501917
    angular: 
      x: -0.000505055068061
      y: -0.000671728106681
      z: -0.00218532420695
  covariance: [0.0, 0.0, 0.0, 0.0, 0.0, 0.0, 0.0, 0.0, 0.0, 0.0, 0.0, 0.0, 0.0, 0.0, 0.0, 0.0, 0.0, 0.0, 0.0, 0.0, 0.0, 0.0, 0.0, 0.0, 0.0, 0.0, 0.0, 0.0, 0.0, 0.0, 0.0, 0.0, 0.0, 0.0, 0.0, 0.0]
---
header: 
  seq: 386
  stamp: 
    secs: 18
    nsecs: 284000000
  frame_id: "map"
child_frame_id: "base_link"
pose: 
  pose: 
    position: 
      x: 0.0101887956262
      y: -0.00239603640512
      z: 0.00946159940213
    orientation: 
      x: -0.00114159696797
      y: 0.000772898271673
      z: 0.000689100973153
      w: -0.999998887068
  covariance: [0.0, 0.0, 0.0, 0.0, 0.0, 0.0, 0.0, 0.0, 0.0, 0.0, 0.0, 0.0, 0.0, 0.0, 0.0, 0.0, 0.0, 0.0, 0.0, 0.0, 0.0, 0.0, 0.0, 0.0, 0.0, 0.0, 0.0, 0.0, 0.0, 0.0, 0.0, 0.0, 0.0, 0.0, 0.0, 0.0]
twist: 
  twist: 
    linear: 
      x: 0.00428231300728
      y: 0.0125596131568
      z: -0.0108496916863
    angular: 
      x: 0.000999499228783
      y: -0.0003380572889
      z: -0.000633352901787
  covariance: [0.0, 0.0, 0.0, 0.0, 0.0, 0.0, 0.0, 0.0, 0.0, 0.0, 0.0, 0.0, 0.0, 0.0, 0.0, 0.0, 0.0, 0.0, 0.0, 0.0, 0.0, 0.0, 0.0, 0.0, 0.0, 0.0, 0.0, 0.0, 0.0, 0.0, 0.0, 0.0, 0.0, 0.0, 0.0, 0.0]
---
header: 
  seq: 387
  stamp: 
    secs: 18
    nsecs: 316000000
  frame_id: "map"
child_frame_id: "base_link"
pose: 
  pose: 
    position: 
      x: 0.0100892744958
      y: -0.00209190719761
      z: 0.00929481629282
    orientation: 
      x: -0.00113114191536
      y: 0.000793231985809
      z: 0.000668996926413
      w: -0.999998844921
  covariance: [0.0, 0.0, 0.0, 0.0, 0.0, 0.0, 0.0, 0.0, 0.0, 0.0, 0.0, 0.0, 0.0, 0.0, 0.0, 0.0, 0.0, 0.0, 0.0, 0.0, 0.0, 0.0, 0.0, 0.0, 0.0, 0.0, 0.0, 0.0, 0.0, 0.0, 0.0, 0.0, 0.0, 0.0, 0.0, 0.0]
twist: 
  twist: 
    linear: 
      x: 0.00407638749274
      y: 0.0127821783104
      z: -0.0113585532523
    angular: 
      x: 0.000417942937929
      y: -0.00200633797795
      z: -0.00169952237047
  covariance: [0.0, 0.0, 0.0, 0.0, 0.0, 0.0, 0.0, 0.0, 0.0, 0.0, 0.0, 0.0, 0.0, 0.0, 0.0, 0.0, 0.0, 0.0, 0.0, 0.0, 0.0, 0.0, 0.0, 0.0, 0.0, 0.0, 0.0, 0.0, 0.0, 0.0, 0.0, 0.0, 0.0, 0.0, 0.0, 0.0]
---
header: 
  seq: 388
  stamp: 
    secs: 18
    nsecs: 352000000
  frame_id: "map"
child_frame_id: "base_link"
pose: 
  pose: 
    position: 
      x: 0.00998764764518
      y: -0.00181552825961
      z: 0.00912626180798
    orientation: 
      x: -0.00110670984209
      y: 0.000814656980224
      z: 0.000635911650332
      w: -0.999998887068
  covariance: [0.0, 0.0, 0.0, 0.0, 0.0, 0.0, 0.0, 0.0, 0.0, 0.0, 0.0, 0.0, 0.0, 0.0, 0.0, 0.0, 0.0, 0.0, 0.0, 0.0, 0.0, 0.0, 0.0, 0.0, 0.0, 0.0, 0.0, 0.0, 0.0, 0.0, 0.0, 0.0, 0.0, 0.0, 0.0, 0.0]
twist: 
  twist: 
    linear: 
      x: 0.00438579174515
      y: 0.0138287268088
      z: -0.0118726552987
    angular: 
      x: -0.00159967772197
      y: -0.00130419328343
      z: -0.000468800659291
  covariance: [0.0, 0.0, 0.0, 0.0, 0.0, 0.0, 0.0, 0.0, 0.0, 0.0, 0.0, 0.0, 0.0, 0.0, 0.0, 0.0, 0.0, 0.0, 0.0, 0.0, 0.0, 0.0, 0.0, 0.0, 0.0, 0.0, 0.0, 0.0, 0.0, 0.0, 0.0, 0.0, 0.0, 0.0, 0.0, 0.0]
---
header: 
  seq: 389
  stamp: 
    secs: 18
    nsecs: 384000000
  frame_id: "map"
child_frame_id: "base_link"
pose: 
  pose: 
    position: 
      x: 0.00990469567478
      y: -0.00136991438922
      z: 0.00881183333695
    orientation: 
      x: -0.00109803916727
      y: 0.000813596013573
      z: 0.000637766111667
      w: -0.999998887068
  covariance: [0.0, 0.0, 0.0, 0.0, 0.0, 0.0, 0.0, 0.0, 0.0, 0.0, 0.0, 0.0, 0.0, 0.0, 0.0, 0.0, 0.0, 0.0, 0.0, 0.0, 0.0, 0.0, 0.0, 0.0, 0.0, 0.0, 0.0, 0.0, 0.0, 0.0, 0.0, 0.0, 0.0, 0.0, 0.0, 0.0]
twist: 
  twist: 
    linear: 
      x: 0.0045009111094
      y: 0.0140514332071
      z: -0.012100269894
    angular: 
      x: -8.8086235337e-06
      y: 0.000781003502198
      z: -0.000316777790431
  covariance: [0.0, 0.0, 0.0, 0.0, 0.0, 0.0, 0.0, 0.0, 0.0, 0.0, 0.0, 0.0, 0.0, 0.0, 0.0, 0.0, 0.0, 0.0, 0.0, 0.0, 0.0, 0.0, 0.0, 0.0, 0.0, 0.0, 0.0, 0.0, 0.0, 0.0, 0.0, 0.0, 0.0, 0.0, 0.0, 0.0]
---
header: 
  seq: 390
  stamp: 
    secs: 18
    nsecs: 416000000
  frame_id: "map"
child_frame_id: "base_link"
pose: 
  pose: 
    position: 
      x: 0.00969798583537
      y: -0.00104560353793
      z: 0.00837568379939
    orientation: 
      x: -0.00110219759802
      y: 0.000833930664078
      z: 0.000623056861537
      w: -0.999998844921
  covariance: [0.0, 0.0, 0.0, 0.0, 0.0, 0.0, 0.0, 0.0, 0.0, 0.0, 0.0, 0.0, 0.0, 0.0, 0.0, 0.0, 0.0, 0.0, 0.0, 0.0, 0.0, 0.0, 0.0, 0.0, 0.0, 0.0, 0.0, 0.0, 0.0, 0.0, 0.0, 0.0, 0.0, 0.0, 0.0, 0.0]
twist: 
  twist: 
    linear: 
      x: 0.00422270213236
      y: 0.0144691799294
      z: -0.011814648675
    angular: 
      x: -0.000384280225262
      y: -0.00189874903299
      z: 0.00178295036312
  covariance: [0.0, 0.0, 0.0, 0.0, 0.0, 0.0, 0.0, 0.0, 0.0, 0.0, 0.0, 0.0, 0.0, 0.0, 0.0, 0.0, 0.0, 0.0, 0.0, 0.0, 0.0, 0.0, 0.0, 0.0, 0.0, 0.0, 0.0, 0.0, 0.0, 0.0, 0.0, 0.0, 0.0, 0.0, 0.0, 0.0]
---
header: 
  seq: 391
  stamp: 
    secs: 18
    nsecs: 448000000
  frame_id: "map"
child_frame_id: "base_link"
pose: 
  pose: 
    position: 
      x: 0.00915763061494
      y: -0.000878945109434
      z: 0.0076908278279
    orientation: 
      x: -0.00109644583941
      y: 0.000844305569762
      z: 0.000640210628881
      w: -0.999998887068
  covariance: [0.0, 0.0, 0.0, 0.0, 0.0, 0.0, 0.0, 0.0, 0.0, 0.0, 0.0, 0.0, 0.0, 0.0, 0.0, 0.0, 0.0, 0.0, 0.0, 0.0, 0.0, 0.0, 0.0, 0.0, 0.0, 0.0, 0.0, 0.0, 0.0, 0.0, 0.0, 0.0, 0.0, 0.0, 0.0, 0.0]
twist: 
  twist: 
    linear: 
      x: 0.00385920659749
      y: 0.014467928832
      z: -0.0123233693034
    angular: 
      x: -0.00160038901959
      y: -0.00145385507494
      z: -0.00169690675102
  covariance: [0.0, 0.0, 0.0, 0.0, 0.0, 0.0, 0.0, 0.0, 0.0, 0.0, 0.0, 0.0, 0.0, 0.0, 0.0, 0.0, 0.0, 0.0, 0.0, 0.0, 0.0, 0.0, 0.0, 0.0, 0.0, 0.0, 0.0, 0.0, 0.0, 0.0, 0.0, 0.0, 0.0, 0.0, 0.0, 0.0]
---
header: 
  seq: 392
  stamp: 
    secs: 18
    nsecs: 480000000
  frame_id: "map"
child_frame_id: "base_link"
pose: 
  pose: 
    position: 
      x: 0.00850773043931
      y: -0.000579044106416
      z: 0.00685332017019
    orientation: 
      x: -0.0010853494159
      y: 0.000861601037363
      z: 0.0006424865587
      w: -0.999998887068
  covariance: [0.0, 0.0, 0.0, 0.0, 0.0, 0.0, 0.0, 0.0, 0.0, 0.0, 0.0, 0.0, 0.0, 0.0, 0.0, 0.0, 0.0, 0.0, 0.0, 0.0, 0.0, 0.0, 0.0, 0.0, 0.0, 0.0, 0.0, 0.0, 0.0, 0.0, 0.0, 0.0, 0.0, 0.0, 0.0, 0.0]
twist: 
  twist: 
    linear: 
      x: 0.00295540099932
      y: 0.0149413212813
      z: -0.012862010311
    angular: 
      x: -0.000842884415761
      y: -0.00252578174695
      z: 0.00111678638496
  covariance: [0.0, 0.0, 0.0, 0.0, 0.0, 0.0, 0.0, 0.0, 0.0, 0.0, 0.0, 0.0, 0.0, 0.0, 0.0, 0.0, 0.0, 0.0, 0.0, 0.0, 0.0, 0.0, 0.0, 0.0, 0.0, 0.0, 0.0, 0.0, 0.0, 0.0, 0.0, 0.0, 0.0, 0.0, 0.0, 0.0]
---
header: 
  seq: 393
  stamp: 
    secs: 18
    nsecs: 516000000
  frame_id: "map"
child_frame_id: "base_link"
pose: 
  pose: 
    position: 
      x: 0.00804539117962
      y: -0.000281538756099
      z: 0.00619250675663
    orientation: 
      x: -0.00107053715501
      y: 0.000896062290744
      z: 0.000647628474218
      w: -0.999998802774
  covariance: [0.0, 0.0, 0.0, 0.0, 0.0, 0.0, 0.0, 0.0, 0.0, 0.0, 0.0, 0.0, 0.0, 0.0, 0.0, 0.0, 0.0, 0.0, 0.0, 0.0, 0.0, 0.0, 0.0, 0.0, 0.0, 0.0, 0.0, 0.0, 0.0, 0.0, 0.0, 0.0, 0.0, 0.0, 0.0, 0.0]
twist: 
  twist: 
    linear: 
      x: 0.00195898025617
      y: 0.0154786188702
      z: -0.0133985902861
    angular: 
      x: 0.000272208708338
      y: -5.76981474296e-05
      z: 0.00178572698496
  covariance: [0.0, 0.0, 0.0, 0.0, 0.0, 0.0, 0.0, 0.0, 0.0, 0.0, 0.0, 0.0, 0.0, 0.0, 0.0, 0.0, 0.0, 0.0, 0.0, 0.0, 0.0, 0.0, 0.0, 0.0, 0.0, 0.0, 0.0, 0.0, 0.0, 0.0, 0.0, 0.0, 0.0, 0.0, 0.0, 0.0]
---
header: 
  seq: 394
  stamp: 
    secs: 18
    nsecs: 552000000
  frame_id: "map"
child_frame_id: "base_link"
pose: 
  pose: 
    position: 
      x: 0.00758844520897
      y: -2.42077258008e-05
      z: 0.00563791394234
    orientation: 
      x: -0.00108550198215
      y: 0.000898437599046
      z: 0.000645858306581
      w: -0.999998802774
  covariance: [0.0, 0.0, 0.0, 0.0, 0.0, 0.0, 0.0, 0.0, 0.0, 0.0, 0.0, 0.0, 0.0, 0.0, 0.0, 0.0, 0.0, 0.0, 0.0, 0.0, 0.0, 0.0, 0.0, 0.0, 0.0, 0.0, 0.0, 0.0, 0.0, 0.0, 0.0, 0.0, 0.0, 0.0, 0.0, 0.0]
twist: 
  twist: 
    linear: 
      x: 0.00157796063731
      y: 0.0154391976152
      z: -0.0131646205786
    angular: 
      x: 0.00156252412125
      y: -0.00151884718798
      z: -7.41011463106e-05
  covariance: [0.0, 0.0, 0.0, 0.0, 0.0, 0.0, 0.0, 0.0, 0.0, 0.0, 0.0, 0.0, 0.0, 0.0, 0.0, 0.0, 0.0, 0.0, 0.0, 0.0, 0.0, 0.0, 0.0, 0.0, 0.0, 0.0, 0.0, 0.0, 0.0, 0.0, 0.0, 0.0, 0.0, 0.0, 0.0, 0.0]
---
header: 
  seq: 395
  stamp: 
    secs: 18
    nsecs: 584000000
  frame_id: "map"
child_frame_id: "base_link"
pose: 
  pose: 
    position: 
      x: 0.00703013921157
      y: 0.000390261702705
      z: 0.00486597651616
    orientation: 
      x: -0.00107321892317
      y: 0.000907851050328
      z: 0.000656732193497
      w: -0.999998802774
  covariance: [0.0, 0.0, 0.0, 0.0, 0.0, 0.0, 0.0, 0.0, 0.0, 0.0, 0.0, 0.0, 0.0, 0.0, 0.0, 0.0, 0.0, 0.0, 0.0, 0.0, 0.0, 0.0, 0.0, 0.0, 0.0, 0.0, 0.0, 0.0, 0.0, 0.0, 0.0, 0.0, 0.0, 0.0, 0.0, 0.0]
twist: 
  twist: 
    linear: 
      x: 0.00165320962254
      y: 0.0155347439134
      z: -0.0136672124842
    angular: 
      x: -0.000613092910498
      y: -0.000629171205219
      z: -0.00310970516875
  covariance: [0.0, 0.0, 0.0, 0.0, 0.0, 0.0, 0.0, 0.0, 0.0, 0.0, 0.0, 0.0, 0.0, 0.0, 0.0, 0.0, 0.0, 0.0, 0.0, 0.0, 0.0, 0.0, 0.0, 0.0, 0.0, 0.0, 0.0, 0.0, 0.0, 0.0, 0.0, 0.0, 0.0, 0.0, 0.0, 0.0]
---
header: 
  seq: 396
  stamp: 
    secs: 18
    nsecs: 616000000
  frame_id: "map"
child_frame_id: "base_link"
pose: 
  pose: 
    position: 
      x: 0.00670364918187
      y: 0.000740924209822
      z: 0.00440334528685
    orientation: 
      x: -0.00107075941378
      y: 0.000907036605698
      z: 0.000537035143726
      w: -0.999998887068
  covariance: [0.0, 0.0, 0.0, 0.0, 0.0, 0.0, 0.0, 0.0, 0.0, 0.0, 0.0, 0.0, 0.0, 0.0, 0.0, 0.0, 0.0, 0.0, 0.0, 0.0, 0.0, 0.0, 0.0, 0.0, 0.0, 0.0, 0.0, 0.0, 0.0, 0.0, 0.0, 0.0, 0.0, 0.0, 0.0, 0.0]
twist: 
  twist: 
    linear: 
      x: 0.0050384753313
      y: 0.0151155181271
      z: -0.014038446622
    angular: 
      x: -0.000813108519651
      y: -0.0024225609377
      z: 0.0163233801723
  covariance: [0.0, 0.0, 0.0, 0.0, 0.0, 0.0, 0.0, 0.0, 0.0, 0.0, 0.0, 0.0, 0.0, 0.0, 0.0, 0.0, 0.0, 0.0, 0.0, 0.0, 0.0, 0.0, 0.0, 0.0, 0.0, 0.0, 0.0, 0.0, 0.0, 0.0, 0.0, 0.0, 0.0, 0.0, 0.0, 0.0]
---
header: 
  seq: 397
  stamp: 
    secs: 18
    nsecs: 652000000
  frame_id: "map"
child_frame_id: "base_link"
pose: 
  pose: 
    position: 
      x: 0.00649677403271
      y: 0.00102856557351
      z: 0.00405284157023
    orientation: 
      x: -0.00107492245433
      y: 0.000902024207362
      z: -0.000881290602363
      w: -0.999998634187
  covariance: [0.0, 0.0, 0.0, 0.0, 0.0, 0.0, 0.0, 0.0, 0.0, 0.0, 0.0, 0.0, 0.0, 0.0, 0.0, 0.0, 0.0, 0.0, 0.0, 0.0, 0.0, 0.0, 0.0, 0.0, 0.0, 0.0, 0.0, 0.0, 0.0, 0.0, 0.0, 0.0, 0.0, 0.0, 0.0, 0.0]
twist: 
  twist: 
    linear: 
      x: 0.0081976152358
      y: 0.0141409501762
      z: -0.0141560644359
    angular: 
      x: -0.000997778493911
      y: -0.000356246717274
      z: 0.123940758407
  covariance: [0.0, 0.0, 0.0, 0.0, 0.0, 0.0, 0.0, 0.0, 0.0, 0.0, 0.0, 0.0, 0.0, 0.0, 0.0, 0.0, 0.0, 0.0, 0.0, 0.0, 0.0, 0.0, 0.0, 0.0, 0.0, 0.0, 0.0, 0.0, 0.0, 0.0, 0.0, 0.0, 0.0, 0.0, 0.0, 0.0]
---
header: 
  seq: 398
  stamp: 
    secs: 18
    nsecs: 680000000
  frame_id: "map"
child_frame_id: "base_link"
pose: 
  pose: 
    position: 
      x: 0.00641394453123
      y: 0.00143071694765
      z: 0.00364717748016
    orientation: 
      x: -0.000995301881749
      y: 0.000916181669223
      z: -0.00265681088958
      w: -0.999995557467
  covariance: [0.0, 0.0, 0.0, 0.0, 0.0, 0.0, 0.0, 0.0, 0.0, 0.0, 0.0, 0.0, 0.0, 0.0, 0.0, 0.0, 0.0, 0.0, 0.0, 0.0, 0.0, 0.0, 0.0, 0.0, 0.0, 0.0, 0.0, 0.0, 0.0, 0.0, 0.0, 0.0, 0.0, 0.0, 0.0, 0.0]
twist: 
  twist: 
    linear: 
      x: 0.0109028109534
      y: 0.0131468196882
      z: -0.00755115524468
    angular: 
      x: -0.0136399557814
      y: -0.00240378989838
      z: 0.205596297979
  covariance: [0.0, 0.0, 0.0, 0.0, 0.0, 0.0, 0.0, 0.0, 0.0, 0.0, 0.0, 0.0, 0.0, 0.0, 0.0, 0.0, 0.0, 0.0, 0.0, 0.0, 0.0, 0.0, 0.0, 0.0, 0.0, 0.0, 0.0, 0.0, 0.0, 0.0, 0.0, 0.0, 0.0, 0.0, 0.0, 0.0]
---
header: 
  seq: 399
  stamp: 
    secs: 18
    nsecs: 716000000
  frame_id: "map"
child_frame_id: "base_link"
pose: 
  pose: 
    position: 
      x: 0.00644727377221
      y: 0.00176081701647
      z: 0.00364883453585
    orientation: 
      x: -0.000152359334483
      y: 0.000934836074285
      z: -0.00866294753663
      w: -0.999962050722
  covariance: [0.0, 0.0, 0.0, 0.0, 0.0, 0.0, 0.0, 0.0, 0.0, 0.0, 0.0, 0.0, 0.0, 0.0, 0.0, 0.0, 0.0, 0.0, 0.0, 0.0, 0.0, 0.0, 0.0, 0.0, 0.0, 0.0, 0.0, 0.0, 0.0, 0.0, 0.0, 0.0, 0.0, 0.0, 0.0, 0.0]
twist: 
  twist: 
    linear: 
      x: 0.0113158024233
      y: 0.0130784784559
      z: 0.00526864587661
    angular: 
      x: -0.070324793458
      y: 0.00341264903545
      z: 0.381634414196
  covariance: [0.0, 0.0, 0.0, 0.0, 0.0, 0.0, 0.0, 0.0, 0.0, 0.0, 0.0, 0.0, 0.0, 0.0, 0.0, 0.0, 0.0, 0.0, 0.0, 0.0, 0.0, 0.0, 0.0, 0.0, 0.0, 0.0, 0.0, 0.0, 0.0, 0.0, 0.0, 0.0, 0.0, 0.0, 0.0, 0.0]
---
header: 
  seq: 400
  stamp: 
    secs: 18
    nsecs: 752000000
  frame_id: "map"
child_frame_id: "base_link"
pose: 
  pose: 
    position: 
      x: 0.00646054185927
      y: 0.00205684104003
      z: 0.00406966870651
    orientation: 
      x: 0.00165884023563
      y: 0.000630851682446
      z: -0.0176429658146
      w: -0.999842817288
  covariance: [0.0, 0.0, 0.0, 0.0, 0.0, 0.0, 0.0, 0.0, 0.0, 0.0, 0.0, 0.0, 0.0, 0.0, 0.0, 0.0, 0.0, 0.0, 0.0, 0.0, 0.0, 0.0, 0.0, 0.0, 0.0, 0.0, 0.0, 0.0, 0.0, 0.0, 0.0, 0.0, 0.0, 0.0, 0.0, 0.0]
twist: 
  twist: 
    linear: 
      x: 0.0114546772583
      y: 0.0135225669811
      z: 0.0234775082472
    angular: 
      x: -0.0962669327855
      y: 0.0280248336494
      z: 0.502638041973
  covariance: [0.0, 0.0, 0.0, 0.0, 0.0, 0.0, 0.0, 0.0, 0.0, 0.0, 0.0, 0.0, 0.0, 0.0, 0.0, 0.0, 0.0, 0.0, 0.0, 0.0, 0.0, 0.0, 0.0, 0.0, 0.0, 0.0, 0.0, 0.0, 0.0, 0.0, 0.0, 0.0, 0.0, 0.0, 0.0, 0.0]
---
header: 
  seq: 401
  stamp: 
    secs: 18
    nsecs: 784000000
  frame_id: "map"
child_frame_id: "base_link"
pose: 
  pose: 
    position: 
      x: 0.00653371680528
      y: 0.0025711231865
      z: 0.00576467020437
    orientation: 
      x: 0.00255220545735
      y: 0.0003191276228
      z: -0.0229914851843
      w: -0.999732392545
  covariance: [0.0, 0.0, 0.0, 0.0, 0.0, 0.0, 0.0, 0.0, 0.0, 0.0, 0.0, 0.0, 0.0, 0.0, 0.0, 0.0, 0.0, 0.0, 0.0, 0.0, 0.0, 0.0, 0.0, 0.0, 0.0, 0.0, 0.0, 0.0, 0.0, 0.0, 0.0, 0.0, 0.0, 0.0, 0.0, 0.0]
twist: 
  twist: 
    linear: 
      x: 0.0116335369008
      y: 0.0160678991234
      z: 0.062416491082
    angular: 
      x: -0.0821510106325
      y: 0.0309918727726
      z: 0.550611972809
  covariance: [0.0, 0.0, 0.0, 0.0, 0.0, 0.0, 0.0, 0.0, 0.0, 0.0, 0.0, 0.0, 0.0, 0.0, 0.0, 0.0, 0.0, 0.0, 0.0, 0.0, 0.0, 0.0, 0.0, 0.0, 0.0, 0.0, 0.0, 0.0, 0.0, 0.0, 0.0, 0.0, 0.0, 0.0, 0.0, 0.0]
---
header: 
  seq: 402
  stamp: 
    secs: 18
    nsecs: 816000000
  frame_id: "map"
child_frame_id: "base_link"
pose: 
  pose: 
    position: 
      x: 0.00655280984938
      y: 0.00271732057445
      z: 0.00848436541855
    orientation: 
      x: 0.0035523975054
      y: -0.00031140594149
      z: -0.0347522260865
      w: -0.999389654372
  covariance: [0.0, 0.0, 0.0, 0.0, 0.0, 0.0, 0.0, 0.0, 0.0, 0.0, 0.0, 0.0, 0.0, 0.0, 0.0, 0.0, 0.0, 0.0, 0.0, 0.0, 0.0, 0.0, 0.0, 0.0, 0.0, 0.0, 0.0, 0.0, 0.0, 0.0, 0.0, 0.0, 0.0, 0.0, 0.0, 0.0]
twist: 
  twist: 
    linear: 
      x: 0.0126537883712
      y: 0.0182729203432
      z: 0.10253538642
    angular: 
      x: -0.018595578149
      y: 0.0236222222447
      z: 0.613653898239
  covariance: [0.0, 0.0, 0.0, 0.0, 0.0, 0.0, 0.0, 0.0, 0.0, 0.0, 0.0, 0.0, 0.0, 0.0, 0.0, 0.0, 0.0, 0.0, 0.0, 0.0, 0.0, 0.0, 0.0, 0.0, 0.0, 0.0, 0.0, 0.0, 0.0, 0.0, 0.0, 0.0, 0.0, 0.0, 0.0, 0.0]
---
header: 
  seq: 403
  stamp: 
    secs: 18
    nsecs: 852000000
  frame_id: "map"
child_frame_id: "base_link"
pose: 
  pose: 
    position: 
      x: 0.0063808048144
      y: 0.0021273442544
      z: 0.0121961822733
    orientation: 
      x: 0.00331206234575
      y: -0.000747167147328
      z: -0.0471864736279
      w: -0.998880351855
  covariance: [0.0, 0.0, 0.0, 0.0, 0.0, 0.0, 0.0, 0.0, 0.0, 0.0, 0.0, 0.0, 0.0, 0.0, 0.0, 0.0, 0.0, 0.0, 0.0, 0.0, 0.0, 0.0, 0.0, 0.0, 0.0, 0.0, 0.0, 0.0, 0.0, 0.0, 0.0, 0.0, 0.0, 0.0, 0.0, 0.0]
twist: 
  twist: 
    linear: 
      x: 0.0139183392941
      y: 0.019328736096
      z: 0.144538552556
    angular: 
      x: 0.0369447767735
      y: 0.0155548760667
      z: 0.621855318546
  covariance: [0.0, 0.0, 0.0, 0.0, 0.0, 0.0, 0.0, 0.0, 0.0, 0.0, 0.0, 0.0, 0.0, 0.0, 0.0, 0.0, 0.0, 0.0, 0.0, 0.0, 0.0, 0.0, 0.0, 0.0, 0.0, 0.0, 0.0, 0.0, 0.0, 0.0, 0.0, 0.0, 0.0, 0.0, 0.0, 0.0]
---
header: 
  seq: 404
  stamp: 
    secs: 18
    nsecs: 884000000
  frame_id: "map"
child_frame_id: "base_link"
pose: 
  pose: 
    position: 
      x: 0.00626934831962
      y: 0.00158691767137
      z: 0.0196300018579
    orientation: 
      x: 0.00278886964295
      y: -0.000877139960965
      z: -0.0533882137989
      w: -0.998569560994
  covariance: [0.0, 0.0, 0.0, 0.0, 0.0, 0.0, 0.0, 0.0, 0.0, 0.0, 0.0, 0.0, 0.0, 0.0, 0.0, 0.0, 0.0, 0.0, 0.0, 0.0, 0.0, 0.0, 0.0, 0.0, 0.0, 0.0, 0.0, 0.0, 0.0, 0.0, 0.0, 0.0, 0.0, 0.0, 0.0, 0.0]
twist: 
  twist: 
    linear: 
      x: 0.0150258097547
      y: 0.0202386727981
      z: 0.212770587185
    angular: 
      x: 0.0639471784234
      y: 0.00501405773684
      z: 0.617488265038
